,Addresse,Lat,Lng,Name,Rating
0,"Klingenstrasse 33, 8005 Zürich, Switzerland",47.3820024,8.5336248,Vulkan,4.1
1,"Seefeldstrasse 96, 8008 Zürich, Switzerland",47.35978799999999,8.552527999999999,Tandoori BBQ,4.3
2,"Hofwiesenstrasse 188, 8057 Zürich, Switzerland",47.40194779999999,8.5353165,Kerala,4.4
3,"Schaffhauserstrasse 306, 8050 Zürich, Switzerland",47.4068396,8.5482176,Tamarind Hill,4.5
4,"Wallisellenstrasse 11, 8050 Zürich, Switzerland",47.4105299,8.548490200000002,Malabar,4.3
5,"Schaffhauserstrasse 410, 8050 Zürich, Switzerland",47.4148258,8.5458113,Indian Palace,4.0
6,"Stauffacherstrasse 27, 8004 Zürich, Switzerland",47.3730182,8.5289258,Masala,4.0
7,"Tadka Indisches Restaurant, Quellenstrasse 49, 8005 Zürich, Switzerland",47.38627200000001,8.528704,Tadka,4.3
8,"Zypressenstrasse 52, 8004 Zürich, Switzerland",47.3774745,8.513120899999999,DelhiHouse of Bestcurry,4.2
9,"Schaffhauserstrasse 32, 8006 Zürich, Switzerland",47.39033,8.539215,Thali,4.1
10,"Pfingstweidstrasse 104, 8005 Zürich, Switzerland",47.3908564,8.5090174,naanu Take & Eat,4.4
11,"Seefeldstrasse 7A, 8008 Zürich, Switzerland",47.3650344,8.5487244,Cheti's,4.2
12,"Zollikerstrasse 1, 8008 Zürich, Switzerland",47.3642177,8.5547343,DARBAR INDIAN CUISINE RESTAURANT,4.4
13,"Predigerpl. 34, 8001 Zürich, Switzerland",47.3736152,8.5457459,New Bombay,4.5
14,"Kanzleistrasse 78, 8004 Zürich, Switzerland",47.3757027,8.5243848,Kobal,4.4
15,"Rigipl. 1, 8006 Zürich, Switzerland",47.384879,8.548608,Cheti's Curry,4.5
16,"Langstrasse 213, 8005 Zürich, Switzerland",47.3831319,8.5300976,Thali House,4.0
17,"Uetlibergstrasse 166, 8045 Zürich, Switzerland",47.3592892,8.5162265,Swaad,3.9
18,"Meinrad-Lienert-Strasse 27, 8003 Zürich, Switzerland",47.3751714,8.517364299999999,Namaste india,4.2
19,"Seebacherstrasse 77, 8052 Zürich, Switzerland",47.42244669999999,8.540617,Tandoor Haus,4.2
20,"Witikonerstrasse 375, 8053 Zürich, Switzerland",47.3593305,8.5919606,Crown of India,4.0
21,"Sihlfeldstrasse 45, 8003 Zürich, Switzerland",47.374745,8.516791999999999,Sher-E-Punjab,3.9
22,"Mühlegasse 5, 8001 Zürich, Switzerland",47.3744388,8.5435705,Kormasutra,3.7
23,"Limmattalstrasse 252, 8049 Zürich, Switzerland",47.4027483,8.4925754,Maharani,3.7
24,"Kanonengasse 19, 8004 Zürich, Switzerland",47.377685,8.529520999999999,Cima,4.5
25,"Binzmühlestrasse 104, 8050 Zürich, Switzerland",47.4135237,8.5387735,Kurry World,4.4
26,"Hönggerstrasse 25, 8037 Zürich, Switzerland",47.390972,8.526494999999999,Taj Palace,3.1
27,"Zwinglistrasse 3, 8004 Zürich, Switzerland",47.3778101,8.5295767,Raja Bongo,4.5
28,"Richtipl. 3, 8304 Wallisellen, Switzerland",47.4099182,8.595612899999999,Sahar,4.3
29,"Ellen-Widmann-Weg 6, 8050 Zürich, Switzerland",47.414887,8.5395185,Namaste,4.4
30,"Beckenhofstrasse 16, 8006 Zürich, Switzerland",47.3833231,8.5419053,Curry Corner,4.7
31,"Kalchengasse 12, 8302 Kloten, Switzerland",47.4527826,8.58274,Flavour of India,3.9
32,"Josefstrasse 91, 8005 Zürich, Switzerland",47.383009,8.530692,Ali Baba,4.2
33,"Thurgauerstrasse 32, 8050 Zürich, Switzerland",47.4131832,8.5522026,Kurry World -Hong Kong Food Paradise,4.3
34,"Stauffacherstrasse 27, 8004 Zürich, Switzerland",47.3730128,8.528922399999999,Safran,0.0
35,"Hagenholzstrasse 56, 8050 Zürich, Switzerland",47.4134695,8.5549593,Diwali,3.0
36,"Josefstrasse 146, 8005 Zürich, Switzerland",47.3847974,8.527721999999999,Friends Corner,4.5
37,"Stampfenbachstrasse 32, 8006 Zürich, Switzerland",47.3793334,8.5434762,Bombay Karachi,3.7
38,"Rue de Berne 11, 1201 Genève, Switzerland",46.20925829999999,6.1448206,Restaurant Bombay,3.8
39,"Rue du Prieuré 20, 1202 Genève, Switzerland",46.2141716,6.147269800000001,Little India Restaurant,4.2
40,"Place de la Navigation 6, 1201 Genève, Switzerland",46.2118706,6.1500485,Restaurant Bollywood,3.7
41,"Rue de Carouge 77, 1205 Geneva, Switzerland",46.18993870000001,6.143659899999999,Rajpoute,4.1
42,"Rue de Monthoux 58, 1201 Genève, Switzerland",46.211528,6.145726499999999,Indian Plaza,4.6
43,"Quai Turrettini 1, 1201 Genève, Switzerland",46.2056498,6.1402725,Rasoi by Vineet,4.3
44,"Rue Kléberg 8, 1201 Genève, Switzerland",46.2069029,6.1452825,KIRAN Restaurant,4.0
45,"Rue de la Servette 76, 1202 Genève, Switzerland",46.2123958,6.1327189,INDIAN CURRY HOUSE,4.1
46,"Rue des Eaux-Vives 102, 1207 Genève, Switzerland",46.2056015,6.1609735,bombay palace restaurant,3.7
47,"Rue de Lausanne 29, 1201 Genève, Switzerland",46.2124535,6.144773499999999,Little India Street kitchen & Cocktails,4.1
48,"Avenue de Sainte-Clotilde 21, 1205 Genève, Switzerland",46.198988,6.132406,Jaipur,4.0
49,"Rue de Neuchâtel 18, 1201 Genève, Switzerland",46.2109812,6.145997700000001,Sajna Restaurant,4.1
50,"Rue Docteur-Alfred-Vincent 13, 1201 Genève, Switzerland",46.2099195,6.148666,The Indus,4.0
51,"Rue des Pâquis 18, 1201 Genève, Switzerland",46.2107631,6.1489576,Royal India restaurant,4.1
52,"38, Rue de Lausanne, 1201 Genève, Switzerland",46.213221,6.145713,Shahi Restaurant,3.7
53,"Boulevard Carl-Vogt 16, 1205 Genève, Switzerland",46.200469,6.1314011,Punjabi,4.1
54,"Rue de Neuchâtel 37, 1201 Genève, Switzerland",46.2118196,6.1463537,Café Gandhi,3.4
55,"Rue de la Gabelle 20, 1227 Carouge, Switzerland",46.1885036,6.1344074,Le Maharadja,4.1
56,"Rue de Lyon 67, bis, 1203 Geneva, Switzerland",46.2082934,6.128651,Chandigarh Tandoori,4.2
57,"Rue des Battoirs, 1205 Genève, Switzerland",46.191742,6.143376,Zingy Food Chez Neha,3.7
58,"Rue du Vélodrome 14, 1205 Genève, Switzerland",46.1997668,6.1313488,Shiva,4.5
59,"Rue Henri-Blanvalet 23, 1207 Genève, Switzerland",46.2035653,6.1591963,Inda-Bar,4.3
60,"4, Route de Meyrin, 1202 Genève, Switzerland",46.2141715,6.1288855,King Curry,3.6
61,"125 Rue de Genève, 74240 Gaillard, France",46.1915763,6.211151399999999,Restaurant indien Bollywood,4.6
62,"Boulevard Carl-Vogt 62, 1205 Genève, Switzerland",46.19775,6.13601,Restaurant Le Safran,4.9
63,"Rue de Neuchâtel 37, 1201 Genève, Switzerland",46.2118119,6.146263100000001,Gandhi Indian Business SA,0.0
64,"19 Rue de la Libération, 74240 Gaillard, France",46.1896164,6.2106476,Rameeka Restaurant,4.3
65,"1553 Rue de Genève, 01210 Ornex, France",46.263828,6.102723,Restaurant Le Rajpoute,4.4
66,"4 Rue de Versoix, 01210 Ferney-Voltaire, France",46.2558217,6.111071099999999,Karma Lounge,4.1
67,"Route de Meyrin 375, 1217 Meyrin, Switzerland",46.23209310000001,6.0597359,Restaurant Nirvana,3.9
68,"Rue du Mont-Blanc 10, 1201 Genève, Switzerland",46.20746200000001,6.14716,Hôtel Bristol Genève,4.4
69,"Avenue Louis-Casaï 60, 1216 Cointrin, Switzerland",46.2239294,6.1089803,Restaurant Royal Oriental,4.0
70,"Spalenring 160, 4055 Basel, Switzerland",47.5541267,7.576075599999999,INDIAN RESTAURANT ROYAL PALACE,4.2
71,"Petersgraben 21, 4051 Basel, Switzerland",47.559876,7.584972,Indian Tandoori Palace,4.3
72,"Schützenmattstrasse 2, 4051 Basel, Switzerland",47.55731360000001,7.582575299999999,Mandir Indisches Restaurant,4.1
73,"Spalenring 163, 4055 Basel, Switzerland",47.554265,7.576734,Bayleaf Gourmet Indian Restaurant,4.5
74,"Totentanz 1, 4051 Basel, Switzerland",47.56169939999999,7.586228600000001,New Bombay,4.2
75,"Elisabethenstrasse 41, 4051 Basel, Switzerland",47.5508382,7.5911282,Bajwa Palace,4.0
76,"St. Johanns-Ring 34, 4056 Basel, Switzerland",47.5650375,7.5781863,Johann by Jay,4.7
77,"Markthalle Basel, Viaduktstrasse 10, 4052 Basel, Switzerland",47.549347,7.587129,Dabbawalas Basel,4.2
78,"Klingentalstrasse 67, 4057 Basel, Switzerland",47.5646688,7.596923200000001,Restaurant Spicy,4.2
79,"Postpassage 5, 4051 Basel, Switzerland",47.5467105,7.592540799999999,Spice of India - Indian Restaurant,4.4
80,"60 Avenue Général de Gaulle, 68300 Saint-Louis, France",47.5815101,7.5546034,Maison de l'Inde,4.6
81,"Monbijoustrasse 26, 3011 Bern, Switzerland",46.944076,7.435716999999999,Namaste India,4.1
82,"Länggassstrasse 43, 3012 Bern, Switzerland",46.95393869999999,7.4310708,Royal Punjab Indisches Restaurant,4.4
83,"Effingerstrasse 51, 3008 Bern, Switzerland",46.9456751,7.429329200000001,Maharaja Palace,4.1
84,"Marktgasse 69, 3011 Bern, Switzerland",46.9481099,7.444079399999999,Way to India,3.9
85,"Lorrainestrasse 9, 3013 Bern, Switzerland",46.95610569999999,7.4449157,Restaurant OKRA,4.4
86,"Belpstrasse 11, 3007 Bern, Switzerland",46.9455866,7.4336544,India4u Restaurent,4.2
87,"Neuengass-Passage 3, 3011 Bern, Switzerland",46.949284,7.443335,NAMASTE INDIA CITY,4.4
88,"Freiburgstrasse 64, 3008 Bern, Switzerland",46.9461997,7.4183259,Curry House,4.2
89,"Landorfstrasse 31, 3098 Köniz, Switzerland",46.9214209,7.412029999999999,Indian Kitchen,4.6
90,"Murtenstrasse 131, 3008 Bern, Switzerland",46.9491619,7.4112037,Indisches Restaurant Kesar,4.6
91,"Moserstrasse 27, 3014 Bern, Switzerland",46.9571212,7.4525944,3dosha ayurveda,4.9
92,"Länggassstrasse 43, 3012 Bern, Switzerland",46.9539249,7.4310787,Singh amrik,0.0
93,"Freiestrasse 65, 3012 Bern, Switzerland",46.9543156,7.424950000000001,Tulsi,4.4
94,"Avenue Louis-Ruchonnet 11, 1003 Lausanne, Switzerland",46.51824,6.626326499999999,Nandanam,4.2
95,"Escaliers du Marché 5, 1003 Lausanne, Switzerland",46.522043,6.63362,Laxmi Restaurant Indien,3.8
96,"Avenue Louis-Ruchonnet 2, 1003 Lausanne, Switzerland",46.51804689999999,6.6277314,New Delhi,4.3
97,"Avenue de la Gare 10, 1003 Lausanne, Switzerland",46.5170999,6.6357351,Shanti,3.8
98,"Rue Chaucrau 14, 1003 Lausanne, Switzerland",46.5229983,6.6311661,Restaurant Royal India,3.9
99,"Avenue de Cour 74, 1007 Lausanne, Switzerland",46.5160406,6.614342199999999,Aux Fleurs de la Terre,4.1
100,"Avenue de France 2, 1004 Lausanne, Switzerland",46.5240522,6.6245085,Le Maharaja,3.4
101,"Chemin des Roches 1, 1009 Pully, Switzerland",46.5107156,6.6632472,Kurry Masala,4.0
102,"Rue de la Mouline 8, Chavannes - Renens, 1022 Lausanne, Switzerland",46.5268183,6.5741609,Indian Zayeka,4.2
103,"Rue de la Paix 25, 1020 Renens, Switzerland",46.5359141,6.591895800000001,Kashmir,3.8
104,"Place de la Gare 9, 1003 Lausanne, Switzerland",46.517111,6.629061999999999,A l'étage,3.9
105,"Schützenstrasse 43, 8400 Winterthur, Switzerland",47.5046202,8.7195674,Tandoor,4.4
106,"Wartstrasse 23, 8400 Winterthur, Switzerland",47.5011479,8.7210603,Maharaja Curry,4.2
107,"Pflanzschulstrasse 3, 8400 Winterthur, Switzerland",47.49444039999999,8.7408684,Restaurant Cucina,4.1
108,"Büelrainstrasse 1, 8400 Winterthur, Switzerland",47.4965483,8.7274113,Restaurant Barnabas,4.5
109,"Löwengraben 8, 6004 Luzern, Switzerland",47.052916,8.3051175,Mirch Masala,3.9
110,"Baselstrasse 31, 6003 Luzern, Switzerland",47.0526552,8.2958061,GourmIndia,4.4
111,"Zürichstrasse 4, 6004 Luzern, Switzerland",47.0561309,8.3106075,Kanchi indian cuisine,3.7
112,"Löwengraben 4, 6004 Luzern, Switzerland",47.0530315,8.3053338,Tandoori,4.1
113,"Kauffmannweg 20, 6003 Luzern, Switzerland",47.04637270000001,8.306428799999999,Neville's,3.3
114,"Luzernerstrasse 6, 6030 Ebikon, Switzerland",47.0791769,8.336656999999999,Tandoori,3.8
115,"Moosmattstrasse 22, 6005 Luzern, Switzerland",47.03978739999999,8.3037437,Asian Takeaway,4.5
116,"Löwengraben 14, 6004 Luzern, Switzerland",47.0529203,8.3045686,Gandhi,3.7
117,"Hallwilerweg 7, 6003 Luzern, Switzerland",47.0480355,8.302942,Indian Take Away,4.4
118,"St. Jakob-Strasse 87, 9000 St. Gallen, Switzerland",47.4326196,9.3827152,Restaurant HOLI,4.8
119,"Schmiedgasse 20, 9000 St. Gallen, Switzerland",47.4240283,9.3756079,Restaurant Indian Palace im Anker,4.1
120,"Lukasstrasse 8, 9008 St. Gallen, Switzerland",47.4399362,9.395871,Restaurant Indian Tandoori,4.3
121,"9001, Turnerstrasse 2, 9000 St. Gallen, Switzerland",47.4161704,9.357594599999999,Die Fliege Velokurier St. Gallen GmbH,5.0
122,"Langgasse 70, 9008 St. Gallen, Switzerland",47.43876729999999,9.3904526,Restaurant Peacock,4.0
123,"Engelgasse 20, 9000 St. Gallen, Switzerland",47.4268835,9.3746001,Restaurant Samosa,4.6
124,"Via ai Canvetti 15, 6926 Montagnola, Collina d'Oro, Switzerland",45.9891618,8.9218277,Tabla Indian Restaurant,4.4
125,"Riva Paradiso 24, 6900 Lugano, Switzerland",45.99037999999999,8.9504582,Ristorante Indiano Indian Thali (10 min walk to lugano center,4.1
126,"Aarbergstrasse 100, 2502 Biel, Switzerland",47.1341939,7.242091899999999,Casa Miracoli,4.7
127,"Solothurnstrasse 85, 2504 Biel, Switzerland",47.1577668,7.273496,Rotihaus,3.7
128,"General-Dufour-Strasse 31, 2502 Biel, Switzerland",47.1405676,7.248948700000001,Maharaja Palace,4.0
129,"Hauptstrasse 82, 2560 Nidau, Switzerland",47.1223994,7.241784600000001,Restaurant du Pont,3.9
130,"Neuenburgstrasse 90, 2505 Biel, Switzerland",47.1317338,7.222375599999999,Restaurant Räblus,4.5
132,"Panoramastrasse 3, 3600 Thun, Switzerland",46.754794,7.631103999999999,Maha Lakshmi Indian Restaurant,4.1
134,"Rue de la Balance 15, 2300 La Chaux-de-Fonds, Switzerland",47.1048105,6.831904199999999,Le restaurant Maharajah,4.2
135,"Rue Daniel-Jeanrichard 14, 2300 La Chaux-de-Fonds, Switzerland",47.1010634,6.8278912,Restaurant Kashthury,4.6
136,"Guntramstraße 22, 79106 Freiburg im Breisgau, Germany",47.9996538,7.838644099999999,Indian Curryhouse,4.6
137,"Kaiser-Joseph-Straße 278, 79098 Freiburg im Breisgau, Germany",47.9912984,7.848248099999999,Royal Panjab,3.9
138,"Konviktstraße 33, 79098 Freiburg im Breisgau, Germany",47.99394,7.854679999999998,Mahatma Gandhi,3.9
139,"Gerberau 5, 79098 Freiburg im Breisgau, Germany",47.99352450000001,7.849972499999999,Jaipur,4.2
140,"Elsässer Str. 71, 79110 Freiburg im Breisgau, Germany",48.0155491,7.823331,Kashmir,4.6
141,"Bertoldstraße 51, 79098 Freiburg im Breisgau, Germany",47.995934,7.844149000000001,Karma,3.2
142,"Kaiser-Joseph-Straße 278, 79098 Freiburg im Breisgau, Germany",47.9913029,7.8482008,Royal Panjab,3.9
143,"79098 Freiburg, Germany",47.9971702,7.8506213,Panjab,4.4
144,"Bundesstraße 2, 79238 Ehrenkirchen, Germany",47.9368,7.7252,Devi,4.2
145,"Platz 11, 8200 Schaffhausen, Switzerland",47.697851,8.63533,Indian Masala,4.4
146,"Unterstadt 7, 8200 Schaffhausen, Switzerland",47.6956868,8.639972199999999,Toni Take-Away,4.5
147,"Süsswinkelgasse 25, 7000 Chur, Switzerland",46.8482372,9.5338771,Restaurant Marsoel,3.9
148,"Gürtelstrasse 33, 7000 Chur, Switzerland",46.854153,9.527853,Pizzakurier La Mamma,4.1
149,"Gäuggelistrasse 60, 7000 Chur, Switzerland",46.8506513,9.5239646,Restaurant VA BENE,4.5
150,"Emserstrasse 4, 7000 Chur, Switzerland",46.8459274,9.5063979,Restaurant Sommerau,4.5
151,"Steinbruchstrasse 2, 7000 Chur, Switzerland",46.8513893,9.5342896,La Vita Chur GmbH,4.4
152,"Bahnhofstrasse 14, 7002 Chur, Switzerland",46.8519379,9.5312472,Speiserestaurant Rätushof Chur,4.2
153,"Breisacher Str. 20, 79395 Neuenburg am Rhein, Germany",47.8156818,7.5603371,Hotel-Restaurant Gasthof Adler,4.3
154,"Bahnhofstraße 8, 79395 Neuenburg am Rhein, Germany",47.8122271,7.562557999999999,Hotel Neuenburger Hof,4.2
155,"Schlüsselstraße 8, 79395 Neuenburg am Rhein, Germany",47.81375389999999,7.560665099999999,Weißes Kreuz,4.0
156,"Mülhauser Str. 1, 79395 Neuenburg am Rhein, Germany",47.8159417,7.553030199999999,Zum kleinen Hecht,4.5
157,"Müllheimer Str. 35, 79395 Neuenburg am Rhein, Germany",47.812075,7.569076000000001,Villa Plön,4.3
159,"Bahnhofstraße 1a, 79424 Auggen, Germany",47.788289,7.590590999999999,Restaurant Bären Steak No°1 by Taste Hotels,4.3
160,"Rue du Seyon 19, 2000 Neuchâtel, Switzerland",46.9928118,6.928037400000001,ShriGanesh Restaurant,4.4
161,"Rue de l'Evole 39, 2000 Neuchâtel, Switzerland",46.9894997,6.9216276,Restaurant Paprika,4.1
162,"Rue de Gibraltar 1, 2000 Neuchâtel, Switzerland",46.9969543,6.9441684,Sultan Restaurant & Bollywood Bar,3.9
163,"Goethestraße 10, 79379 Müllheim, Germany",47.8101955,7.627167999999998,Restaurant Bar Lounge Messer & Gradel,4.8
164,"Aathalstrasse 42, 8610 Uster, Switzerland",47.3450076,8.7311974,Aladin Pizza Kurier,4.7
165,"Loren-Allee 20, 8610 Uster, Switzerland",47.3588337,8.7092642,Flor,4.6
166,"Ferrachstrasse 1, 8630 Rüti, Switzerland",47.2593649,8.8513156,Restaurant Rani,3.9
167,"Bankstrasse 11, 8610 Uster, Switzerland",47.3506598,8.717310099999999,Zambale Restaurant,4.2
168,"Zürichstrasse 7, 8610 Uster, Switzerland",47.3491781,8.715392099999999,Restaurant Wiang Phing Uster,4.3
169,"Poststrasse 6, 8610 Uster, Switzerland",47.349945,8.7178043,Chabis-chäs.ch GmbH,4.6
170,"Seestrasse 7, 8610 Uster, Switzerland",47.347979,8.715812,Ichiban178,4.4
171,"Zentralstrasse 28, 8610 Uster, Switzerland",47.346856,8.717084,Restaurant ARENA,4.3
172,"Aathalstrasse 5, 8610 Uster, Switzerland",47.3466969,8.7277019,Poseidon,4.4
173,"Pfäffikerstrasse 36, 8610 Uster, Switzerland",47.35841869999999,8.729127799999999,BurgerAMT,4.6
174,"Zürichstrasse 7, 8610 Uster, Switzerland",47.3489678,8.7158749,Boulevard Restaurant Uster,4.5
175,"Freudwilerstrasse 6, 8615 Freudwil bei Uster, Switzerland",47.374246,8.732374,Restaurant Blume,4.7
176,"Brunnenstrasse 21, 8610 Uster, Switzerland",47.352042,8.721759,Restaurant Brunnentor,4.5
177,"Poststrasse 6, 8610 Uster, Switzerland",47.349945,8.717804,Post Da Fabio,4.4
178,"Aathalstrasse 50, 8610 Uster, Switzerland",47.3449669,8.7334478,Speiserestaurant zur Linde,4.5
179,"Friedhofstrasse 3A, 8610 Uster, Switzerland",47.34335069999999,8.7153069,8610 Restaurant,4.4
180,"Winterthurerstrasse 13, 8610 Uster, Switzerland",47.35158699999999,8.713272,Tomate,4.0
181,"Schulweg 7, 8610 Uster, Switzerland",47.3468531,8.715729099999999,Restaurant zur Kastanie,4.2
182,"Brandstrasse 32, 8610 Uster, Switzerland",47.3534799,8.708253,Mona Lisa,4.4
183,"Seestrasse 93, 8610 Uster, Switzerland",47.34475519999999,8.7045636,Pizza Forte,4.5
184,"Schlossweg 4, 8610 Uster, Switzerland",47.3454566,8.7178576,Restaurant Burg,4.2
185,"Uferweg, 8610 Uster, Switzerland",47.3432939,8.6907569,8610 am See,4.3
186,"Poststrasse 13, 8610 Uster, Switzerland",47.3490184,8.716988700000002,Restaurant Suan Long Uster Ly + Ly,3.9
187,"Zentralstrasse 30, 8610 Uster, Switzerland",47.3467157,8.7168722,Restaurant Frieden,4.3
188,"Schlossweg 4, 8610 Uster, Switzerland",47.3449731,8.7181164,Argentina Steakhouse,4.3
189,"Poststrasse 20, 8610 Uster, Switzerland",47.34908799999999,8.716725,"Pizzeria Ristorante Molino, Uster",4.0
191,"Industriestrasse 10a, 8610 Uster, Switzerland",47.3518866,8.718443299999999,HAN Mongolian Barbeque,4.1
194,"Luppmenstrasse 13, 8320 Fehraltorf, Switzerland",47.3881854,8.7450682,Restaurant Pumpkin,4.7
197,"Poststrasse 2, 8610 Uster, Switzerland",47.3501702,8.7182928,McDonald’s,3.5
198,"Dietenrainweg 15, 8616 Riedikon, Switzerland",47.3371394,8.7165824,Restaurant Paradiso,4.3
201,"Avenue des Morgines 1, 1213 Petit-Lancy, Switzerland",46.1879514,6.1118616,Lancy Parc Brasserie Restaurant,3.8
202,"Route du Grand-Lancy 66, 1212 Lancy, Switzerland",46.1836077,6.1211376,Auberge-Restaurant du Grand-Lancy,4.3
203,"Chemin de la Vendée 28, 1213 Petit-Lancy, Switzerland",46.1895439,6.1205339,La Braceria Fratelli Scalea,4.1
204,"Route de Saint-Georges 73, 1213 Petit-Lancy, Switzerland",46.1963782,6.1171682,Restaurant la Terrasse,4.3
205,"Chemin de la Solitude 9, 1213 Lancy, Switzerland",46.1898856,6.115201,Lancy Tennis Club,4.4
206,"Chemin de la Caroline 18A, 1213 Petit-Lancy, Switzerland",46.191373,6.109239,Restaurant Pizzeria Caroll,4.3
207,"Route Pont-Butin 12, 1213 Petit-Lancy, Switzerland",46.1962521,6.1118736,Restaurant St.Georges,4.1
208,"Petit-Lancy, Route de Chancy 25, 1213 Petit-Lancy, Switzerland",46.1898567,6.118793699999999,Café Restaurant Pizzeria les Ormeaux,3.9
209,"Chemin de la Caroline 2, 1213 Petit-Lancy, Switzerland",46.1895237,6.1105792,Restaurant Rio-Bar,3.3
210,"Route de Chancy 28, 1213 Petit-Lancy, Switzerland",46.1904261,6.118744299999999,Restaurant « Le Commerce »,4.1
211,"Avenue du Curé Baud 84, 1212 Lancy, Switzerland",46.1750057,6.1152136,Restaurant Tennis-Club Lancy- Fraisiers,4.3
212,"Chemin des Palettes 5, 1212 Lancy, Switzerland",46.1756374,6.1214622,Restaurant Les Palettes,4.2
213,"21, Chemin des Pontets, 1212 Lancy, Switzerland",46.1740074,6.1237075,D'Ka,4.4
214,"Avenue des Communes-Réunies 74, 1212 Lancy, Switzerland",46.172721,6.1230292,Pizzeria la Mamma,3.9
215,"Avenue du Petit-Lancy 13, 1213 Petit-Lancy, Switzerland",46.1924026,6.1164875,Copacabana restaurant & burger,3.9
216,"Route de Chancy 27, 1213 Petit-Lancy, Switzerland",46.18980750000001,6.1186528,Restaurant Chinois le Coral,4.0
217,"Grand-Lancy,, Chemin des Semailles 34, 1212 Lancy, Switzerland",46.1760947,6.1183212,Café des Semailles,3.9
218,"Chemin de la Vendée 20, 1213 Petit-Lancy, Switzerland",46.1898968,6.1214236,La Petite Vendée,3.9
219,"Route de Chancy 71, 1213 Petit-Lancy, Switzerland",46.1870167,6.1119691,Wasabi Sushi Petit-Lancy,3.6
220,"Avenue des Communes-Réunies 2, 1212 Lancy, Switzerland",46.1828902,6.1200993,Restaurant Au Carrefour,4.3
221,"Avenue Eugène Lance 64, 1212 Lancy, Switzerland",46.17504599999999,6.126023,"Pizza Leggera ""un'Opera italiana""",4.2
222,"Avenue des Morgines 1, 1213 Petit-Lancy, Switzerland",46.1881156,6.1122634,Özer Kebap,4.3
223,"Avenue Eugène Lance 32, 1212 Lancy, Switzerland",46.179379,6.12372,Restaurant Le Marignac,4.4
226,"Chemin de la Vendée 28, 1213 Petit-Lancy, Switzerland",46.1895439,6.1205339,La tranche Fratelli Scalea,4.0
228,"Rue de Clendy 9, 1400 yverdon-len-Bains, Switzerland",46.7782184,6.6539437,Naan n Curry Indian Restaurant,3.8
229,"Weerdingerstraat 14A, 7815 SB Emmen, Netherlands",52.7893118,6.8932477,Indian Spices,4.2
230,"Baarerstrasse 30, 6300 Zug, Switzerland",47.173786,8.517185,Restaurant Bären,4.3
231,"Oberdorfstrasse, 8810 Horgen, Switzerland",47.2585088,8.5906297,Chalet India,4.4
232,"Seestrasse 200, 8810 Horgen, Switzerland",47.259227,8.602088,Taste of India,4.4
233,"Metallstrasse 20, 6300 Zug, Switzerland",47.173201,8.521023999999999,"CU Restaurant - Bar, Lounge & Terrasse",4.2
234,"Graben 2, 6300 Zug, Switzerland",47.1666888,8.514503699999999,Restaurant Schiff & Catering,4.3
235,"Artherstrasse 108, 6317 Zug, Switzerland",47.1494571,8.5074405,Zunfthaus Kreuz,4.4
236,"Industriestrasse 22, 6300 Zug, Switzerland",47.1743903,8.51943,Restaurant Dragon Palace,4.2
237,"Baarerstrasse 135, 6300 Zug, Switzerland",47.1813677,8.5188551,Aki Sushi Zug,4.5
238,"Industriestrasse 13C, 6300 Zug, Switzerland",47.172531,8.5181633,Cha Cha Thai,4.1
239,"Metalli, Baarerstrasse 14, 6300 Zug, Switzerland",47.1722025,8.5168046,Negishi Metalli,4.4
240,"Chamerstrasse 169, 6300 Zug, Switzerland",47.1809523,8.4850056,Centro Espanol Zug,4.4
241,"Schochenmühle 1, 6300 Zug, Switzerland",47.187405,8.499979999999999,Restaurant zur Alten Lorze,4.1
242,"Hafenpl. 2, 6300 Zug, Switzerland",47.172711,8.504799,Hafenrestaurant,4.0
243,"Industriestrasse 14, 6302 Zug, Switzerland",47.1721952,8.5189111,Parkhotel Zug,4.1
244,"Grabenstrasse 6, 6300 Zug, Switzerland",47.1660055,8.5151683,Restaurant Intermezzo Zug,4.5
245,"Artherstrasse 4, 6300 Zug, Switzerland",47.1645836,8.5138994,Theater Casino Zug,4.4
246,"Artherstrasse 1, 6318 Walchwil, Switzerland",47.09951909999999,8.5132683,Restaurant Engel,4.5
247,"Seestrasse 3, 6300 Zug, Switzerland",47.1674235,8.5150975,Gotthärdli am See,4.3
248,"Kolinpl. 10, 6300 Zug, Switzerland",47.1661432,8.5150799,Aklin,4.7
249,"Bahnhofstrasse 12, 6300 Zug, Switzerland",47.1689663,8.515932,SPAGO RESTAURANT & BAR,3.9
250,"Zugerbergstrasse 14, 6300 Zug, Switzerland",47.1636979,8.5166255,Colonia Italiana Zug,4.6
251,"Fischmarkt 15, 6300 Zug, Switzerland",47.1661689,8.5150001,Ristorante Fischmärt Zug,4.4
252,"Vorstadt 8, 6300 Zug, Switzerland",47.168743,8.5147581,Restaurant zum Kaiser Franz im Rössl,4.5
253,"Grafenauweg 6, 6300 Zug, Switzerland",47.174494,8.513129,MEATING,4.5
254,"Blasenbergstrasse 15, 6300 Zug, Switzerland",47.1648591,8.5261061,Ristorante Pasteria Röthelberg,4.7
255,"Metallstrasse 9, 6300 Zug, Switzerland",47.1735554,8.5185993,"Pizzeria Bar Da Pino, Caparelli",4.4
256,"Im Bahnhof 6300, 6300, 6300, Switzerland",47.1733261,8.5154319,Far East,3.7
257,"Neugasse 16, 6300 Zug, Switzerland",47.1669579,8.5152798,Olive & Oregano,4.3
258,"Switzerland, Fischmarkt 2, 6300 Zug, Switzerland",47.1662742,8.514329499999999,Ana Capri,4.2
259,"Ober Altstadt 1, 6300 Zug, Switzerland",47.1660559,8.514913900000002,Gasthaus Rathauskeller,4.1
260,"Baarerstrasse 41, 6300 Zug, Switzerland",47.1738822,8.516163299999999,Pier 41,4.0
261,"General-Guisan-Strasse 4, 6303 Zug, Switzerland",47.17652589999999,8.507785799999999,67 Sixtyseven Sportsbar,4.3
262,"Kolinpl. 11, 6300 Zug, Switzerland",47.166089,8.516146599999999,Restaurant Au Premier,5.0
263,"Vorstadt 26, 6300 Zug, Switzerland",47.169298,8.514551899999999,Ristorante Puccini,4.1
264,"Poststrasse 7, 8805 Richterswil, Switzerland",47.20851200000001,8.706698,Restaurant Namaste Schiffli,4.6
265,"Blasenbergstrasse 4, 6300 Zug, Switzerland",47.1573946,8.5296776,Restaurant Blasenberg,4.6
266,"Turmstrasse 18, 6300 Zug, Switzerland",47.1879013,8.4814919,ToroToro Steak & Burger,4.4
267,"Landsgemeindepl. 12, 6300 Zug, Switzerland",47.166614,8.515084,Widder,4.4
268,"Industriestrasse 14, 6302 Zug, Switzerland",47.1723539,8.518962199999999,Parkhotel Restaurant,0.0
269,"Allmendstrasse 3, 6300 Zug, Switzerland",47.1747916,8.5061684,Wirtschaft Brandenberg,4.0
270,"Baarerstrasse 63, 6300 Zug, Switzerland",47.17574,8.517289,HAN Mongolian Barbecue Zug,4.3
271,"Bahnhofstrasse 2, 6300 Zug, Switzerland",47.1681663,8.5158765,PLAZA café bistro bar,4.1
274,"Baarermattstrasse 11, 6341 Baar, Switzerland",47.1806071,8.5264904,Fontana,4.5
275,"Ibelweg 24, 6300 Zug, Switzerland",47.18225409999999,8.525417299999999,ConSol Bistro,4.5
277,"Grabenstrasse 3, 6340 Baar, Switzerland",47.186365,8.520006,hello world Baar,4.4
279,"Baarerstrasse 135, 6300 Zug, Switzerland",47.181317,8.518913999999999,Aki Sushi KISTENFABRIK,4.3
282,"Hinterbergstrasse 24, 6330 Cham, Switzerland",47.1865487,8.478866,Ristorante Prisma,4.5
285,"Aeussere Güterstrasse 1, 6300 Zug, Switzerland",47.1781269,8.5180268,Telepizza,3.2
286,"Zugerstrasse 62, 6340 Baar, Switzerland",47.1853229,8.520229,McDonald’s,3.7
289,"Emil-Staub-Strasse 5, 8708 Männedorf, Switzerland",47.257145,8.683833,Spice Village,4.4
296,"Rengglochstrasse 11, 6012 Obernau, Switzerland",47.0347293,8.2445296,"Die Kulturwerkstatt, Jlanit Schumacher",0.0
299,"Hofmattweg 6, 6010 Kriens, Switzerland",47.0333724,8.282912399999999,Pizzeria Ristorante Hofmatt,4.6
300,"Industriestrasse 15, 6010 Kriens, Switzerland",47.023534,8.299579,La Fontana,4.4
301,"Krienseregg, 6010 Kriens, Switzerland",47.0134509,8.2647216,Restaurant Krienseregg,4.3
302,"Gehristrasse 3, 6010 Kriens, Switzerland",47.03073269999999,8.2773189,Asia Garten GmbH,5.0
303,"Schappeweg 3, 6010 Kriens, Switzerland",47.03465300000001,8.274058499999999,Ristorante uno e più Schappe-Center,4.2
304,"Hinter-Buholz 1, 6010 Kriens, Switzerland",47.0195377,8.2776189,Restaurant Burestübli,4.1
305,"Industriestrasse 9, 6010 Kriens, Switzerland",47.02432899999999,8.299674,Kuonimatt Steakhouse & Pizzeria,4.3
306,"Zumhofstrasse 258, 6010 Kriens, Switzerland",47.0443586,8.2735861,Hotel Sonnenberg,4.2
307,"Grabenhofstrasse 5, 6010 Kriens, Switzerland",47.0240701,8.297578399999999,Restaurant Ranch,4.0
308,"Schwyzerhüsliweg, 6010 Kriens, Switzerland",47.045376,8.279855,Restaurant Schwyzerhüsli,4.2
309,"Luzernerstrasse 7, 6010 Kriens, Switzerland",47.0339555,8.2788068,Bettys Bistro Kriens,4.7
310,"Obernauerstrasse 22, 6010 Kriens, Switzerland",47.0341059,8.272385000000002,Restaurant Neuhof,4.1
311,"Luzernerstrasse 27, 6010 Kriens, Switzerland",47.0343793,8.2842045,Pizzeria Al Forno AG,4.5
312,"Hochrainstrasse 22, 6010 Kriens, Switzerland",47.0347064,8.2902159,Gruene Bode,3.9
313,"Blattigstrasse, 6012 Kriens, Switzerland",47.0300986,8.239805100000002,Tennisclub Kriens,4.7
314,"Luzernerstrasse 32, 6010 Kriens, Switzerland",47.0341019,8.2836141,MEZZO Esskultur,3.0
315,"Obernauerstrasse 89, 6012 Obernau, Switzerland",47.034458,8.2559571,Restaurant Obernau,4.2
316,"Nidfeldstrasse 14, 6010 Kriens, Switzerland",47.0261631,8.299468,McDonald’s,3.8
317,"Neue Jonastrasse 48, 8640 Rapperswil-Jona, Switzerland",47.2271265,8.822201900000001,House of Spice,4.2
319,"Untere Bahnhofstrasse 16, 8640 Rapperswil-Jona, Switzerland",47.2257681,8.8192535,Aung Kyaw GmbH,4.9
321,"Zürichstrasse 27, 8600 Dübendorf, Switzerland",47.3966529,8.614284,Kang In,4.6
324,"Tobelhofstrasse 355, 8044 Dübendorf, Switzerland",47.3820778,8.5984126,Frohsinn,4.6
325,"Hochbordstrasse 6, 8600 Dübendorf, Switzerland",47.401923,8.6009247,Tres Amigos Mexican Bar und Restaurant,3.7
328,"Schloss-Strasse 86, 8600 Dübendorf, Switzerland",47.379114,8.616636999999999,Restaurant Waldmannsburg,4.6
329,"Bahnhofstrasse 64, 8600 Dübendorf, Switzerland",47.3999232,8.622791,Restaurant Saal Parterre,4.2
330,"Wilstrasse 68, 8600 Dübendorf, Switzerland",47.392606,8.61671,Restaurant Pinocchio,4.4
331,"Usterstrasse 61, 8600 Dübendorf, Switzerland",47.3966564,8.625249600000002,Pizzeria Veneziana,4.7
332,"Zürichstrasse 130, 8600 Dübendorf, Switzerland",47.3968595,8.5984745,Giardino,3.2
333,"Strehlgasse 7, 8600 Dübendorf, Switzerland",47.398267,8.621112,Restaurant Pepino,4.2
334,"Wallisellenstrasse 7A, 8600 Dübendorf, Switzerland",47.3979252,8.6181789,Plisi Restaurant,4.4
335,"Zürichstrasse 96, 8600 Dübendorf, Switzerland",47.3958228,8.604324700000001,Restaurant Sonnental,4.0
336,"Neuweg 4, 8600 Dübendorf, Switzerland",47.3964399,8.613235999999999,Bottega dei sapori Miglio specialità italiana,4.7
337,"Wangenstrasse 59, 8600 Dübendorf, Switzerland",47.4037099,8.6282599,Restaurant il Faro Dübendorf,4.1
338,"Bahnhofstrasse 5, 8600 Dübendorf, Switzerland",47.39744,8.618102,Restaurant Unicorno,4.2
339,"Bahnhofstrasse 47, 8600 Dübendorf, Switzerland",47.3992448,8.621083,China Restaurant Peking Garden,3.9
340,"Bahnhofstrasse 28, 8600 Dübendorf, Switzerland",47.3976897,8.6192203,Restaurant Hecht Kanoglan,4.3
341,"Bettlistrasse 1, 8600 Dübendorf, Switzerland",47.3999257,8.622801299999999,La Stazione,4.3
342,"Auenstrasse 10, 8600 Dübendorf, Switzerland",47.3955205,8.5987517,Cuore Sportivo,4.3
343,"Usterstrasse 68, 8600 Dübendorf, Switzerland",47.39644,8.626387,Wild West Steakhouse TEXAS,4.2
344,"Zürichstrasse 30, 8600 Dübendorf, Switzerland",47.3969128,8.6137015,Restaurant il Faro Zentrum,4.1
345,"Untere Geerenstrasse 2, 8600 Dübendorf, Switzerland",47.389756,8.616581,La Bodega de Pepe,4.3
346,"Zürichstrasse 67, 8600 Dübendorf, Switzerland",47.39565169999999,8.6075089,Ristorante Pizzeria Sorriso,4.1
347,"Wilstrasse 2, 8600 Dübendorf, Switzerland",47.3967922,8.617253,Restaurant Il Gusto,4.0
348,"Bahnhofstrasse 51, 8600 Dübendorf, Switzerland",47.3995322,8.6213183,Restaurant Bahnhöfli,4.1
349,"Untere Zelglistrasse 11, 8600 Dübendorf, Switzerland",47.3948267,8.614719899999999,Wändli,4.4
351,"Stoffelbachstrasse 7A, 8953 Dietikon, Switzerland",47.3957184,8.3978448,Kumar Indian Food,5.0
352,"Bahnhofpl. 5, 8953 Dietikon, Switzerland",47.4053711,8.4047176,Restaurant Bären,4.0
354,"Riedstrasse 14, 8953 Dietikon, Switzerland",47.4201928,8.3957411,Restaurant Riedhof,4.3
355,"Grünaustrasse 2, 8953 Dietikon, Switzerland",47.4093584,8.404599800000002,Foodbar,4.1
356,"Bremgartnerstrasse 16, 8953 Dietikon, Switzerland",47.4035912,8.4018549,Persisches Restaurant Mahnaz,4.4
357,"Fahrweidstrasse 26, 8951 Fahrweid, Switzerland",47.4099626,8.4143992,Chickeria-Pizzeria Fahrweid,4.7
359,"Kronenpl. 1, 8953 Dietikon, Switzerland",47.4057156,8.4006216,Zur Krone,4.3
360,"Oberdorfstrasse 36, 8953 Dietikon, Switzerland",47.4016104,8.3974642,Restaurant Ochsen - Chinesische Küche,4.7
361,"Badenerstrasse 7, 8953 Dietikon, Switzerland",47.4054381,8.3987538,El Pablo,4.6
363,"Poststrasse 2, 8953 Dietikon, Switzerland",47.4041619,8.40546,Restaurant Costa Blanca Mediterrana,4.4
364,"Altbergstrasse 26, 8953 Dietikon, Switzerland",47.4067719,8.405374799999999,Pergola,4.3
365,"Kirchstrasse 16, 8953 Dietikon, Switzerland",47.4055133,8.4033077,Restaurant Tomate,4.2
366,"Bahnhofstrasse 13, 8953 Dietikon, Switzerland",47.4042134,8.4039422,KoJa - Sushi ko&ja take away,4.6
367,"Steinmürlistrasse 66, 8953 Dietikon, Switzerland",47.4022954,8.3954592,Restaurant Heimat,4.3
368,"Kirchstrasse 10, 8953 Dietikon, Switzerland",47.4060333,8.4024425,CRISPY CHICKEN,4.3
369,"Oberdorfstrasse 36, 8953 Dietikon, Switzerland",47.401525,8.397274,Restaurant Schufi's im Ochsen,4.2
370,"Bahnhofpl. 16, 8953 Dietikon, Switzerland",47.4055729,8.4040901,Peace House | Asiatisches Restaurant,4.5
371,"Badenerstrasse 3, Dietikon, 8953 Zürich, Switzerland",47.4052292,8.3996192,Pad Thai Res. und Take,4.4
372,"Bremgartnerstrasse 110, 8953 Dietikon, Switzerland",47.39598429999999,8.3983265,Restaurant Honeret,4.2
373,"Zürcherstrasse 72, 8953 Dietikon, Switzerland",47.4024369,8.4054776,Hotel-Restaurant Sommerau Ticino,4.1
374,"Zürcherstrasse 126, 8953 Dietikon, Switzerland",47.39965919999999,8.4117578,China Restaurant Golden Bambus,4.0
375,"Bahnhofstrasse 2, 8953 Dietikon, Switzerland",47.4044648,8.4049977,Salsa Grill,4.2
376,"Badenerstrasse 21, 8953 Dietikon, Switzerland",47.406019,8.397141999999999,"Pizzeria Ristorante Molino, Dietikon",4.3
377,"Lerzenstrasse 19, 8953 Dietikon, Switzerland",47.4190637,8.3973822,Valentina Pasta e Pizza Dietikon,4.0
378,"Löwenstrasse 28, 8953 Dietikon, Switzerland",47.4052076,8.401403799999999,Migros Restaurant,3.8
379,"Webereistrasse 2, 8953 Dietikon, Switzerland",47.4096847,8.404487399999999,Limmat Restaurant Pizzeria Döner Kebab,3.6
380,"Badenerstrasse 6, 8953 Dietikon, Switzerland",47.4055994,8.399153199999999,Pizza Pasta,4.5
381,"Bahnhofstrasse 15, 8953 Dietikon, Switzerland",47.4041881,8.4036678,Okinii Restaurant,4.0
382,"Sonnenbergstrasse 3, 5408 Ennetbaden, Switzerland",47.4787851,8.3138206,Restaurant Taj Mahal,3.7
383,"Rapidstrasse 5, 8953 Dietikon, Switzerland",47.41008799999999,8.404352,Domino's Pizza Dietikon,4.2
384,"Brunaustrasse 194, 8951 Fahrweid - Weiningen, Switzerland",47.4101753,8.416907499999999,Restaurant Föhrewäldli - Tagungs- und Quartierzentrum,4.3
385,"Hofackerstrasse 37, 8953 Dietikon, Switzerland",47.395818,8.414908,Restaurant Casa Rustica,0.0
386,"Spitalstrasse 74, 8952 Schlieren, Switzerland",47.3963382,8.4267741,Chang Cheng,4.1
387,"Dorfstrasse 72, 8957 Spreitenbach, Switzerland",47.4181103,8.364231799999999,Sternen,4.3
389,"Avenue des Alpes 8, 1820 Montreux, Switzerland",46.4318627,6.912639899999999,Chez Bilia,4.5
390,"Grand Rue 90, 1844 Villeneuve, Switzerland",46.395419,6.923504599999999,Indian Food Indianparadise.ch,4.3
391,"Rue de la Paix 8, 1820 Montreux, Switzerland",46.4319449,6.9112674,Restaurant Royal Palais Indien,3.5
392,"Rue du Conseil 2, 1800 Vevey, Switzerland",46.459241,6.844037999999999,Indian Palace Restaurant,3.7
393,"Quai Ernest-Ansermet 6, 1820 Montreux, Switzerland",46.430616,6.909261,Palais Oriental,4.1
394,"Avenue du Casino 50, 1820 Montreux, Switzerland",46.4310018,6.911013199999999,Restaurant Beijing Town,4.2
395,"Rue de la Paix 11, 1820 Montreux, Switzerland",46.432193,6.911086,Rando Burger Restaurant,4.7
396,"Grand' Rue 38, 1820 Montreux, Switzerland",46.4336192,6.910271,Restaurant Pizzeria au Parc,4.3
397,"Rue du Marché 1, 1820 Montreux, Switzerland",46.4334818,6.910403499999999,La Rouvenaz,4.3
398,"Rue de la Gare 40, 1820 Montreux, Switzerland",46.43416999999999,6.913559999999999,Restaurant le Museum,4.4
399,"Rue de l'Hôtel-de-Ville 21, 1800 Vevey, Switzerland",46.459265,6.8462133,Restaurant Kashmir Vevey,4.2
400,"Avenue Claude-Nobs 2, 1820 Montreux, Switzerland",46.4382789,6.9071054,MP's Bar & Grill,4.3
401,"Grand' Rue 81, 1820 Montreux, Switzerland",46.4367128,6.9081442,Hotel Eurotel,4.2
402,"Avenue Nestlé 17, 1820 Montreux, Switzerland",46.4300294,6.9133873,Restaurant Bavaria Montreux,4.1
403,"Rue du Simplon 7, 1800 Vevey, Switzerland",46.4595593,6.8457719,Swagat Indian Restaurant,4.4
404,"Route de Caux 16, 1823 Glion-sur-Montreux, Switzerland",46.432088,6.925886999999999,Hotel Victoria,4.7
405,"Rue du Théâtre 9, 1820 Montreux, Switzerland",46.4297276,6.9117022,Palais Bonheur Restaurant KTV,4.4
406,"Av. Claude-Nobs 2, 1820 Montreux, Switzerland",46.4382789,6.9071054,Montreux Jazz Café,4.4
407,"Grand Hôtel Suisse-Majestic, Avenue des Alpes 45, 1820 Montreux, Switzerland",46.435864,6.90984,Restaurant 45,4.4
408,"Avenue des Alpes 47, 1820 Montreux, Switzerland",46.4362587,6.9097233,Angel's Bar,4.1
409,"Rue de la Corsaz 24, 1820 Montreux, Switzerland",46.4327542,6.914509,Restaurant de la Corsaz,4.4
410,"Avenue du Casino 32, 1820 Montreux, Switzerland",46.4305,6.912204999999999,La Brasserie J5,4.4
411,"Avenue du Casino 17, 1820 Montreux, Switzerland",46.4301549,6.9141353,Huit Sushi Restaurant,4.3
412,"Route de la Cergniaule 18, 1833 Montreux, Switzerland",46.4635253,6.9457539,Auberge de la Cergniaulaz,4.4
413,"Avenue du Casino 45, 1820 Montreux, Switzerland",46.430508,6.9115397,Confiserie Zurcher,4.3
414,"Rue Industrielle 30 bis, 1820 Montreux, Switzerland",46.433525,6.9133889,Caveau des Vignerons,4.0
415,"Avenue des Alpes 94, 1820 Montreux, Switzerland",46.4373361,6.9095046,Fai Wong - Restaurant chinois,4.0
416,"Rlle du Trait 44, 1820 Montreux, Switzerland",46.4309974,6.911684999999999,Restaurant San Luca Pizza & Pasta,4.4
417,"Av. Claude-Nobs 7, 1820 Montreux, Switzerland",46.440068,6.902908999999999,Café Bellagio,3.8
418,"Rue du Théâtre 9, 1820 Montreux, Switzerland",46.429701,6.911841,Casino Barrière Montreux,4.1
419,"Rue du Théâtre 11, 1820 Montreux, Switzerland",46.4305019,6.9099122,Chez Gaston,3.9
420,"Avenue des Alpes 37, 1820 Montreux, Switzerland",46.4350066,6.9102877,Barrel-Oak,4.1
421,"Avenue des Alpes 8, 1820 Montreux, Switzerland",46.43190269999999,6.912657299999999,Kashmiri Chez bilis,5.0
422,"Zürcherstrasse 228, 8500 Frauenfeld, Switzerland",47.5595009,8.901250899999999,Rai Palace,4.5
424,"Walderstrasse 17, 8340 Hinwil, Switzerland",47.301489,8.845047,Restaurant Maharana,4.8
426,"300 Bahnhofstrasse, 8623 Wetzikon, Switzerland",47.3326072,8.8112697,Restaurant Metzg,3.8
427,"Untere Bahnhofstrasse 18, 9500 Wil, Switzerland",47.4625861,9.044768699999999,Restaurant Bollywood,4.4
428,"Rathausstrasse 3, 6340 Baar, Switzerland",47.194873,8.526092,Krone Pizzeria Restaurant,4.3
429,"Dorfstrasse 7, 6340 Baar, Switzerland",47.1943206,8.5259881,Restaurant Benjarong Thai Cuisine,4.2
440,"Bannstrasse 2, 6312 Steinhausen, Switzerland",47.1980697,8.4854715,Masuree Thai Shop,4.6
448,"Oberdorfstrasse 1, 6340 Baar, Switzerland",47.19605670000001,8.5288652,Kebab und Pizza House Baar,4.5
449,"Bahnhofstrasse 9, 6340 Baar, Switzerland",47.1953853,8.524350499999999,Neumühle,4.2
450,"Langgasse 40, 6340 Baar, Switzerland",47.1956163,8.535881999999999,Royal Siam,4.4
457,"Bahnhofstrasse 57, 5000 Aarau, Switzerland",47.3917226,8.0491986,Star Tandoori,4.6
459,"Baselstrasse 68, 4500 Solothurn, Switzerland",47.2134145,7.5473613,Indische Restaurant Malarvanam,4.5
460,"Zugerstrasse 11, 6330 Cham, Switzerland",47.181632,8.4607674,Chinarestaurant Bambus,4.3
462,"Zugerstrasse 4, 6330 Cham, Switzerland",47.1809147,8.4605163,Restaurant Milchsüdi,3.8
463,"Rappenwaldstraße 23a, 6800 Feldkirch, Austria",47.2217056,9.5800694,Samandar - indische & orientalische Küche,4.6
464,"Höllgrotten, 6340 Baar, Switzerland",47.1817526,8.5550771,Höllgrotten Baar,4.5
465,"Metallstrasse 20, 6302 Zug, Switzerland",47.17340799999999,8.521252,City Garden Hotel,4.4
466,"7, Grüner-Turm-Straße, 88212 Ravensburg, Germany",47.7838455,9.613986599999999,India House Restaurant & Cocktailbar Ravensburg,4.2
472,"Mellingerstrasse 48, 5400 Baden, Switzerland",47.4706279,8.3029283,"Kanchi, indisches Restaurant",4.8
473,"Friedrichshofener Str. 16, 85049 Ingolstadt, Germany",48.7760816,11.3823778,Maharani Indisches Restaurant,4.3
474,"Rinderhofer Breite 2, 86529 Schrobenhausen, Germany",48.565552,11.2865358,Bella Tandoori,4.4
475,"Osterbronnstraße 60, 70565 Stuttgart, Germany",48.7190185,9.1146387,Restaurant Namaste India,4.0
476,"Leonberger Str. 97, 71229 Leonberg, Germany",48.7948641,9.010157,Indisches Restaurant KASHMIR - Leonberg,4.5
477,"Pforzheimer Str. 309, 70499 Stuttgart-Weilimdorf, Germany",48.8140967,9.119817900000001,Indisches Restaurant KASHMIR - Stuttgart,4.4
478,"Fischersteige 6, 87435 Kempten (Allgäu), Germany",47.72597700000001,10.31577,Indische Restaurant Kempten,5.0
479,"Kastanienallee 50, 10119 Berlin, Germany",52.5340295,13.4046835,Aapka,4.1
480,"Vaihinger Markt 28, 70563 Stuttgart, Germany",48.730165,9.111006,INDIA HOUSE - INDISCHES RESTAURANT,4.0
481,"Esslinger Str. 11, 70771 Leinfelden-Echterdingen, Germany",48.6954662,9.1709119,Indisches Restaurant KASHMIR -Echterdingen,4.3
482,"Hirschbergstraße 1, 80634 München, Germany",48.1490117,11.5362755,New Delhi Indisches Restaurant,4.6
483,"Schloßstraße 53A, 70176 Stuttgart, Germany",48.777775,9.1675939,Restaurant Namaste India Berliner Platz,4.1
484,"Blutenburgstraße 79, 80634 München, Germany",48.1511267,11.5360509,Maharaja Indisches Restaurant,4.4
485,"Donnersbergerstraße 44, 80634 München, Germany",48.1476113,11.5347832,Bollywood Indisches Restaurant,4.4
487,"Route de Riaz 16, 1630 Bulle, Switzerland",46.6221809,7.0584295,Restaurant Paris Bangkok,4.0
488,"Rue de Gruyères 58, 1630 Bulle, Switzerland",46.6148791,7.0580105,Restaurant Sahana,4.3
489,"Grand-Rue 67, 1630 Bulle, Switzerland",46.6209868,7.057888999999999,La Cabane à Titi,4.3
490,"Rue Saint-Denis 5, 1630 Bulle, Switzerland",46.6152163,7.0577084,Restaurant de l'Ecu,4.7
491,"Rue de Vevey 89, 1630 Bulle, Switzerland",46.61500119999999,7.0515477,Restaurant des Trois-Trèfles,4.1
492,"Rue de la Promenade 44, 1630 Bulle, Switzerland",46.6197676,7.0585669,Restaurant Les Halles,4.2
493,"Rue de Gruyères 16, 1630 Bulle, Switzerland",46.61683360000001,7.057068699999999,Restaurant du cheval blanc,4.4
494,"Rue de Vevey 27, 1630 Bulle, Switzerland",46.61604579999999,7.0548819,Restaurant Bulle Le Thaï Break,4.3
495,"Rue Victor-Tissot 2, 1630 Bulle, Switzerland",46.6163629,7.057436099999999,Brasserie-Bar Le Moderne,4.4
496,"Hôtel des Alpes, Rue Nicolas-Glasson 3, 1630 Bulle, Switzerland",46.61763,7.0555683,Fry Burger Gourmet,4.2
497,"Route de Riaz 16, 1630 Bulle, Switzerland",46.6222101,7.058563899999999,Best Western Hôtel Rallye Bulle,4.1
498,"Route des Arsenaux 15, 1700 Fribourg, Switzerland",46.7987229,7.1498341,Indian Tandoori Corner,4.3
499,"Avenue de la Gare 6, 1630 Bulle, Switzerland",46.6179522,7.0563129,Café de la Gare,4.3
500,"Rue de l'Industrie 31, 1630 Bulle, Switzerland",46.6243512,7.0370636,Restaurant L'Oscar,4.2
501,"Grand-Rue 1, 1630 Bulle, Switzerland",46.617726,7.0570233,Restaurant Le Gruyérien Bulle,4.0
502,"Rue de Gruyères 41, 1630 Bulle, Switzerland",46.6158052,7.0578734,Chez Alice - table d'hôte les délices d'Alice,4.8
503,"Route de l'Intyamon 336, 1663 Epagny, Switzerland",46.5883256,7.0843572,La Croix Blanche Epagny,4.3
504,"Rue du Bourg 24, 1663 Gruyères, Switzerland",46.583529,7.081549,Auberge de la Halle,4.1
505,"Paradiesstraße 7, 78462 Konstanz, Germany",47.6610104,9.1727327,Sitara,4.2
506,"Emmishofer Str. 1, 78462 Konstanz, Germany",47.6573027,9.1710438,IMPERIAL- Indien Palace,4.4
507,"Fischmarkt 1, 78462 Konstanz, Germany",47.6612041,9.177581199999999,Mayura,4.2
508,"Brückengasse 1, 78462 Konstanz, Germany",47.6642284,9.1756157,Rambagh Palace,4.0
509,"Konradigasse 1, 78462 Konstanz, Germany",47.6649731,9.174937100000001,Maharani Konstanz,4.1
510,"Bodanstraße 1, 78462 Konstanz, Germany",47.6565598,9.176425199999999,Long Food Indian,3.8
511,"Sigismundstraße 14, 78462 Konstanz, Germany",47.65851980000001,9.175161899999999,Karma Restaurant + Lounge,4.1
512,"Brückengasse 1, 78462 Konstanz, Germany",47.664186,9.175906,DOM Konstanz | Café Bar Restaurant,4.1
513,"Salmannsweilergasse 12, 78462 Konstanz, Germany",47.661525,9.175989,Pizza Restaurant Roter Gugelhan,4.4
514,"Bodanstraße 30, 78462 Konstanz, Germany",47.6584552,9.1721901,Hexenküche,4.3
515,"Münzgasse 1, 78462 Konstanz, Germany",47.66092450000001,9.1763997,Eugens bio • cafe • restaurant,4.4
516,"Bruderturmgasse 2, 78462 Konstanz, Germany",47.6588984,9.1725855,Hong Kong City - China Restaurant,3.7
517,"Sigismundstraße 12, 78462 Konstanz, Germany",47.6590281,9.175381699999999,Restaurant umami – Sushi & Grill,4.0
518,"Kreuzlinger Str. 18, 78462 Konstanz, Germany",47.6577451,9.1705565,Kuyu Kebap,4.1
519,"Wessenbergstraße 41, 78462 Konstanz, Germany",47.6631545,9.175132699999999,Wessenberg Cafe Restaurant Bar,4.2
520,"Friedrichstraße 32, 78464 Konstanz, Germany",47.67797789999999,9.1855843,Singapore Restaurant Meera - Singapore Restaurant im Königsbau - Restaurant Konstanz,4.5
521,"Speerstrasse 95, 8820 Wädenswil, Switzerland",47.228566,8.660649,Hallenbad Restaurant Swiss Chillys (Indische Spezialitäten),4.6
528,"Rainstraße 1, 79539 Lörrach, Germany",47.612313,7.6587337,Indien Palace,4.2
530,"Bahnhofsplatz 8, 79539 Lörrach, Germany",47.61441600000001,7.664767999999999,Restaurant Ganges,4.4
531,"Baselstrasse 38, 4125 Riehen, Switzerland",47.58434219999999,7.649781000000001,Hotel & Restaurants Landgasthof Riehen,3.9
533,"Weilstrasse 51, 4125 Riehen, Switzerland",47.5915437,7.647313199999998,Wiesengarten Musetti,4.6
535,"Rössligasse 2, 4125 Riehen, Switzerland",47.58558679999999,7.6505555,La Tandure,4.6
536,"Im Niederholzboden 2, 4125 Riehen, Switzerland",47.5758671,7.6358966,Pizza Melsa Riehen,4.3
537,"Schmiedgasse 30, 4125 Riehen, Switzerland",47.5846616,7.6517622,Zur grünen Amsel,4.9
538,"Bahnhofstrasse 28, 4125 Riehen, Switzerland",47.5835332,7.651545800000001,Restaurant schlipf@work,4.2
539,"Hellring 41, 4125 Riehen, Switzerland",47.5757306,7.655008499999999,Bistro Reithalle,4.7
540,"Oberdorfstrasse 2, 4125 Riehen, Switzerland",47.5866252,7.6532315,Sängerstübli,4.5
541,"Hörnliallee 75, 4125 Riehen, Switzerland",47.56591470000001,7.636294400000001,Restaurant Hörnli,4.0
542,"Rauracherstrasse 3, 4125 Riehen, Switzerland",47.5727151,7.6301986,Café Prisma,4.7
543,"Baselstrasse 18, 4125 Riehen, Switzerland",47.5832528,7.6484489,La Serenissima,5.0
544,"Rössligasse 19, 4125 Riehen, Switzerland",47.5856881,7.6516063,Aksu,3.0
545,"Baselstrasse 45, 4125 Riehen, Switzerland",47.5850936,7.649795699999999,Häxekessel,4.8
547,"Kleinhüningeranlage 39, 4057 Basel, Switzerland",47.5841761,7.5936906,Indian Summer - Restaurant und Bar,5.0
548,"Basler Str. 7A, 79540 Lörrach, Germany",47.59714,7.65577,China Restaurant Lotus,4.1
549,"Brohegasse 6, 4126 Bettingen, Switzerland",47.5714657,7.664756,Restaurant Baslerhof,4.2
557,"Rathausgasse 14, 5000 Aarau, Switzerland",47.3926399,8.0436497,Restaurant Mulia,3.7
558,"Halden 20, 5000 Aarau, Switzerland",47.3933544,8.0424563,Restaurant Halde 20,4.4
564,"Mühlebachweg 41, 4123 Allschwil, Switzerland",47.5488316,7.536159999999999,Restaurant Mühle,4.5
565,"Merkurstrasse 101, 4123 Allschwil, Switzerland",47.553526,7.562006999999999,Restaurant BOHRERHOF,4.6
566,"2 Rue des 3 Rois, 68300 Saint-Louis, France",47.5880622,7.562191599999999,Le Shiva,4.3
567,"Baslerstrasse 326, 4123 Allschwil, Switzerland",47.557699,7.560896999999999,Restaurant Sternen,4.5
568,"Bettenstrasse 73, 4123 Allschwil, Switzerland",47.551041,7.555911000000001,Restaurant & Catering Le Paradis,4.5
569,"Binningerstrasse 145, 4123 Allschwil, Switzerland",47.5471085,7.5524789,Restaurant Pizzeria Sonneck,4.6
570,"Baslerstrasse 126, 4123 Allschwil, Switzerland",47.5523958,7.5451058,La Vita,4.3
572,"Binningerstrasse 157, 4123 Allschwil, Switzerland",47.546876,7.553155,Restaurant Schützengarten,4.4
573,"Dorfpl. 11, 4123 Allschwil, Switzerland",47.5515009,7.5371619,Restaurant Jägerstuebli,4.1
574,"Parkallee 7, 4123 Allschwil, Switzerland",47.555957,7.552464000000001,Restaurant AMBIENTE,4.0
575,"76 Avenue de Bâle, 68300 Saint-Louis, France",47.5805371,7.569081,Aathi restaurant,5.0
576,"Binningerstrasse 145, 4123 Allschwil, Switzerland",47.5471113,7.5524789,Restaurant Pizzeria Sonneck,4.3
577,"Hegenheimerstrasse 20, 4123 Allschwil, Switzerland",47.5521284,7.5371289,Restaurant Elsässerhof,4.3
578,"Binningerstrasse 6, 4123 Allschwil, Switzerland",47.551732,7.539938,Blue Ginger / Thai To Go,4.0
579,"Dorfpl. 1, 4123 Allschwil, Switzerland",47.550726,7.536169999999998,Hotel - Restaurant Rössli,4.1
580,"Baslerstrasse 323, 4123 Allschwil, Switzerland",47.5579699,7.560855699999999,Restaurant Lindenplatz,4.0
581,"Baslerstrasse 4, 4123 Allschwil, Switzerland",47.5510403,7.536994,Restaurant Landhus,3.9
582,"5 Rue des Jardins, 68300 Saint-Louis, France",47.5847147,7.5684312,CHEZ MOI RESTAURANT INDIEN,4.4
583,"Gewerbestrasse 16, 4123 Allschwil, Switzerland",47.5576616,7.5450444,Restaurant Invento,3.4
584,"Baslerstrasse 355, 4123 Allschwil, Switzerland",47.557508,7.5638972,Sans Souci Brasserie & Grill,4.3
585,"Hegenheimermattweg 121, 4123 Allschwil, Switzerland",47.5579924,7.5474166,Ristorante il Vitis,3.0
587,"Missionsstrasse 61, 4055 Basel, Switzerland",47.5610702,7.5748687,Indian Takeaway and Restaurant,5.0
588,"Hegenheimerstrasse 81, 4055 Basel, Switzerland",47.5608919,7.570003900000001,Bollywood Indian Food Sandhu,3.8
591,"Haselstrasse 21, 5400 Baden, Switzerland",47.4777302,8.305789899999999,Restaurant Elanet,4.2
592,"Alberich Zwyssigstrasse 78, 5430 Wettingen, Switzerland",47.4646626,8.3253033,Zys Hotel (Zwyssighof),3.6
593,"Schartenfelsstrasse, 5430 Wettingen, Switzerland",47.474574,8.314477,Restaurant Schloss Schartenfels,4.4
596,"Place du Marché 1, 1260 Nyon, Switzerland",46.381897,6.238541,Restaurant Khana Mandir,4.3
597,"Rue de Rive 22, 1260 Nyon, Switzerland",46.3839597,6.2445207,Restaurant Sultan,4.1
598,"Rue Saint-Jean 30, 1260 Nyon, Switzerland",46.383085,6.2394093,Falaque Restaurant - Share the Happiness,4.6
599,"Place du Marché 1, 1260 Nyon, Switzerland",46.381861,6.238620999999999,Mumbai Bar,4.1
603,"Kasernenstrasse 123, 8180 Bülach, Switzerland",47.512973,8.5259278,India Gate,4.0
605,"Hauptstrasse 52, 5734 Reinach, Switzerland",47.2520002,8.182925299999999,Curry Masala Indian Restaurant - Take Away,4.6
606,"Fleischbachstrasse 25, 4153 Reinach, Switzerland",47.5092702,7.600490499999998,Restaurant Wacker,4.6
607,"Hauptstrasse 29, 4153 Reinach, Switzerland",47.492777,7.589437999999999,Gasthof Schlüssel,4.5
608,"Kägenstrasse 12, 4153 Reinach, Switzerland",47.487432,7.597237,Miraki Lunch,4.8
610,"Hauptstrasse 41, 4153 Reinach, Switzerland",47.49220020000001,7.589700300000001,Asia Restaurant Tun Huang,4.1
611,"Baselstrasse 60, 4153 Reinach, Switzerland",47.50115599999999,7.599804000000001,"Restaurant Pizzeria Landhof, Peker",4.2
612,"Sonnenweg 18, 4153 Reinach, Switzerland",47.4974941,7.5991114,Restaurant Trapez,4.4
613,"Hauptstrasse 62, 4153 Reinach, Switzerland",47.4908898,7.589171599999999,ZUR WAAGE,4.3
614,"Hauptstrasse 52, 4153 Reinach, Switzerland",47.491779,7.588797,Ristorante Arcade,4.4
615,"Hauptstrasse 68, 4153 Reinach, Switzerland",47.489952,7.5895082,Foodtime,4.1
616,"Hauptstrasse 24, 4153 Reinach, Switzerland",47.49338059999999,7.589845700000001,Restaurant Rössli,3.9
617,"Predigerhofstrasse 172, 4153 Reinach, Switzerland",47.51478909999999,7.589366699999998,Restaurant Predigerhof,4.1
618,"Angensteinerstrasse 6, 4153 Reinach, Switzerland",47.4922942,7.5928308,Pizzeria cucina amici,4.3
619,"Hauptstrasse 43, 4153 Reinach, Switzerland",47.4918746,7.5895393,Restaurant Schopf,3.1
620,"Sternenhofstrasse 21, 4153 Reinach, Switzerland",47.4894847,7.5964927,SV (Schweiz) AG,5.0
624,"Heideweg 2, 4153 Reinach, Switzerland",47.5036296,7.604266300000001,Rynacherheid Häxehüüsli Peter Stünzi,4.5
628,"Lange Str. 68, 76530 Baden-Baden, Germany",48.7660747,8.2359149,Taj Tandoori,3.9
629,"Kreuzstraße 1, 76530 Baden-Baden, Germany",48.760178,8.239519399999999,Namaskaar,3.9
630,"Gewerbepark Cite 7, 76532 Baden-Baden, Germany",48.7824517,8.1906231,Taj Mahal,3.5
632,"Stadtturmstrasse 20, 5400 Baden, Switzerland",47.4764384,8.305330999999999,Bar & Restaurant Casanova,4.1
633,"3589 Bleams Rd, New Hamburg, ON N0B 2G0, Canada",43.3774416,-80.6954611,McDonald's,3.3
634,"Pfaffstättner Str. 6, 2514 Traiskirchen, Austria",48.0145488,16.2912151,The Taste of India,4.7
635,"-Otto-Scheff-Weg, Dr.-Otto-Scheff-Weg 13, 2340 Mödling, Austria",48.088854,16.2927089,Dharamsala,4.5
640,"New Avataar Selvaratnam, Neue Dorfstrasse 11, 8135 Langnau am Albis, Switzerland",47.2876299,8.5429626,New Avataar,4.8
641,"Soodstrasse 14, 8134 Adliswil, Switzerland",47.3158517,8.5257043,Restaurant Schönau Adliswil GmbH,4.4
642,"In der Au 1, 8604 Volketswil, Switzerland",47.3897651,8.6884666,Restaurant In der Au,3.7
643,"Hofwiesenstrasse 4a, 8604 Volketswil, Switzerland",47.3816765,8.6724213,KONSHI Restaurant--Konfu Kichen & Sushi,4.6
644,"Schmiedgasse 2, 8604 Volketswil, Switzerland",47.389383,8.6943921,Restaurant Schmiedstube,4.4
645,"Hofwiesenstrasse 4, 8604 Volketswil, Switzerland",47.3819764,8.6724573,Costa Viola,4.4
646,"Chappelistrasse 1, 8604 Volketswil, Switzerland",47.3892361,8.6738939,Restaurant am Chappeli,4.1
647,"Kirchweg 30, 8604 Volketswil, Switzerland",47.3849605,8.6827381,Restaurant Griespark,3.8
648,"Im Zentrum 18, 8604 Volketswil, Switzerland",47.3879824,8.6810858,Migros Restaurant,3.2
649,"Büelstrasse 21, 8604 Volketswil, Switzerland",47.3941454,8.6624594,Favela,3.9
650,"Javastrasse 4, 8604 Volketswil, Switzerland",47.393563,8.675855,Restaurant Java 4,3.6
651,"Hofwiesenstrasse 2, 8604 Volketswil, Switzerland",47.3815865,8.671878000000001,McDonald’s,3.6
653,"Industriestrasse 18, 8604 Volketswil, Switzerland",47.38046,8.672509999999999,PERRON 18,0.0
660,"Via Orico 2, 6500 Bellinzona, Switzerland",46.1917621,9.0195089,Osteria Mistral,4.5
661,"Via Orico 13, 6500 Bellinzona, Switzerland",46.19211989999999,9.0190445,Ristorante Locanda Orico,4.6
662,"Via Pedemonte 12, 6500 Bellinzona, Switzerland",46.1958819,9.0318018,Ristorante Pedemonte,4.7
663,"Via Henri Guisan 3, 6500 Bellinzona, Switzerland",46.1951851,9.024261,Pizzeria La Lampara,4.0
664,"Salita alla Chiesa 3, 6500 Bellinzona, Switzerland",46.19539630000001,9.0326423,Ristorante Montebello,4.5
665,"Salita al Castelgrande, 6500 Bellinzona, Switzerland",46.1923879,9.022264999999999,Ristorante Castelgrande,4.3
666,"Viale Stazione 35, 6500 Bellinzona, Switzerland",46.1951974,9.0284072,Ristorante Internazionale Bellinzona,4.1
667,"Via Lavizzari 1, 6500 Bellinzona, Switzerland",46.1959188,9.018924,Ristorante Grottino Ticinese,4.4
668,"Carrale Bacilieri 10, 6500 Bellinzona, Switzerland",46.1840994,9.0251099,Osteria Grotto Malakoff,4.5
669,"Via Franco Zorzi 36, 6500 Bellinzona, Switzerland",46.183829,9.0125449,McDonald's,3.9
670,"Via Camminata 5, 6500 Bellinzona, Switzerland",46.1907089,9.0227135,Ristorante Corona,4.2
671,"Via Orico 3, 6500 Bellinzona, Switzerland",46.1917795,9.0204036,Osteria Locanda Ticinese,4.3
672,"Via Orico 1, 6500 Bellinzona, Switzerland",46.19168459999999,9.020651299999999,Ristorante Giardino,4.3
673,"Viale Stefano Franscini 55, 6500 Bellinzona, Switzerland",46.1930814,9.0112772,Lo Scugnizzo,4.2
674,"Vicolo al Sasso 4, 6500 Bellinzona, Switzerland",46.1913449,9.0222404,Cantinin dal Gatt,4.3
675,"vicolo Muggiasca 1A, 6500 Bellinzona, Switzerland",46.1909497,9.021860499999999,Ristorante Pizzeria Portici,4.4
676,"Viale Stazione 31, 6500 Bellinzona, Switzerland",46.194894,9.0278342,Ristorante Casa del Popolo,4.1
677,"Via alla Predella 3, 6500 Bellinzona, Switzerland",46.18792320000001,9.033421599999999,Ristorante Grotto dei Pacifici,4.2
678,"Via Codeborgo 12, 6500 Bellinzona, Switzerland",46.192586,9.023685799999999,Il Fermento,4.3
679,"Salita Castelgrande, 6500 Bellinzona, Switzerland",46.1924536,9.0223101,Grotto San Michele,4.3
680,"Via Henri Guisan 5, 6500 Bellinzona, Switzerland",46.1960985,9.0249132,Ristorante Prisma,4.2
681,"Via Galbisio 3, 6503 Bellinzona, Switzerland",46.2032529,9.014978,Osteria Grotto del Nando,4.1
682,"Via Sasso Corbaro, 6500 Bellinzona, Switzerland",46.188209,9.030037,Osteria Castello-Sasso Corbaro,4.5
683,"Via Daro 6, 6500 Bellinzona, Switzerland",46.193963,9.0296109,Ristorante Osteria PENALTY da Patrizia e Remo,4.5
684,"Vicolo Santa Marta 2, 6500 Bellinzona, Switzerland",46.1976411,9.0269944,La Terrazza,4.1
685,"Via S. Giovanni 9, 6500 Bellinzona, Switzerland",46.19528820000001,9.025396899999999,Da Me',4.4
686,"Via Pedevilla 13, 6500 Bellinzona, Switzerland",46.1831651,9.0218054,Ristorante Emerenzia,3.9
687,"Via Pizzo di Claro 31, 6500 Bellinzona, Switzerland",46.2042982,9.0247911,Osteria della Bett,4.2
688,"Piazza Governo 3, 6500 Bellinzona, Switzerland",46.191356,9.021034,il Piazza ristorante,4.0
689,"Via Nocca 20, 6500 Bellinzona, Switzerland",46.18846629999999,9.0248873,Hotel Marco Ristorante Cinese Tsui Fok,1.2
690,"Via Bellinzona 5, 6512 Giubiasco, Switzerland",46.1734221,9.0104227,Ristorante Sole,4.1
691,"Via Franco Zorzi 19, 6500 Bellinzona, Switzerland",46.1870272,9.0145921,Ristorante Pizzeria Varano,3.8
692,"A2 Gotthard/San Bernardino - Chiasso, 6503 Bellinzona, Switzerland",46.2097266,9.0272667,Marché Bellinzona Nord,3.9
693,"Viale Stazione 35, 6500 Bellinzona, Switzerland",46.195189,9.028329,Hotel & SPA Internazionale,4.2
694,"Via Retica 2, 6500 Bellinzona, Switzerland",46.197977,9.0263115,Rio bar - pizzeria,3.9
695,"Viale Stazione 34, 6500 Bellinzona, Switzerland",46.1947385,9.028006099999999,Birreria Ristorante Bavarese,3.9
696,"Via Henri Guisan 1, 6500 Bellinzona, Switzerland",46.1947249,9.0238646,Hotel Unione,4.0
697,"Stadio Piazzale 3, 6500 Bellinzona, Switzerland",46.1991759,9.0232871,Ristorante-Bar Stadio,3.7
698,"Piazza Governo 5, 6500 Bellinzona, Switzerland",46.1916077,9.0207582,Zoccolino Ristorantenoteca,4.7
699,"Piazza Collegiata 1, 6500 Bellinzona, Switzerland",46.191626,9.023477,La Corte in Fiore,4.0
700,"Via S. Gottardo 78, 6500 Bellinzona, Switzerland",46.2036021,9.0354169,Nuova Savana di Allevato Antonio,4.1
701,"Viale Stazione 18A, 6500 Bellinzona, Switzerland",46.1936942,9.0264709,Snack Bar Viale,4.2
702,"Viale Stefano Franscini 41, 6500 Bellinzona, Switzerland",46.192148,9.0140931,Ristorante Torretta,3.5
703,"Via Pratocarasso 56, 6500 Bellinzona, Switzerland",46.204284,9.030105299999999,Villa del gusto - Pensione privata,4.5
705,"Piazza Nosetto 4A, 6500 Bellinzona, Switzerland",46.19084549999999,9.0229796,SHIVA Ristorante Indiano,5.0
706,"St. Gallerstrasse 26, 9200 Gossau, Switzerland",47.4153829,9.248501,China-Restaurant Shanghai,4.7
707,"St. Gallerstrasse 137, 9200 Gossau, Switzerland",47.4173912,9.2591948,Restaurant Egli,4.7
708,"Mult 130, 9200 Gossau, Switzerland",47.4064171,9.2453868,Restaurant Traube Mult,4.6
709,"St. Gallerstrasse 54, 9200 Gossau, Switzerland",47.4160319,9.2501401,Restaurant Toggenburg,4.4
710,"Oberberg 193, 9200 Gossau, Switzerland",47.414739,9.28579,Schloss Oberberg,4.5
711,"St. Gallerstrasse 215, 9200 Gossau, Switzerland",47.4154306,9.268289099999999,Pizzeria La Pergola,4.5
712,"Henessenstrasse, 9200 Gossau, Switzerland",47.4448318,9.2282729,Restaurant Henessenmühle,4.4
713,"Lagerstrasse 4, 9200 Gossau, Switzerland",47.4109755,9.2757832,APROPOS,4.4
714,"St. Gallerstrasse 87, 9200 Gossau, Switzerland",47.416932,9.2529807,Ristorante-Pizzeria La Dolce Vita,4.4
715,"Fabrikstrasse 7, 9200 Gossau, Switzerland",47.4148487,9.2533678,Werk 1,4.4
716,"Wilerstrasse 46, 9200 Gossau, Switzerland",47.4167321,9.2398784,Restaurant Moosburg,4.2
717,"Flawilerstrasse 46, 9201 Gossau, Switzerland",47.412667,9.240306,Freihof Brauerei & Hofstube,4.2
718,"Bahnhofpl. 1, 9200 Gossau, Switzerland",47.412254,9.253267,Restaurant Billabong,3.6
719,"St. Gallerstrasse 69, 9200 Gossau, Switzerland",47.4165456,9.250806899999999,Ararat Pizzeria Kebab,4.7
720,"Flawilerstrasse 77, 9200 Gossau, Switzerland",47.41029630000001,9.235253799999999,Restaurant Traube,4.4
721,"9200 Gossau, Switzerland",47.419647,9.2854493,Restaurant Panorama,3.9
722,"9200 Gossau, Switzerland",47.4316645,9.242557099999999,Hofstadl,4.6
723,"St. Gallerstrasse 55, 9200 Gossau, Switzerland",47.4163554,9.250174,Städtli Kafé-Pizza-Kebab,4.3
724,"St. Gallerstrasse 23, 9200 Gossau, Switzerland",47.41555109999999,9.248092699999999,dieci Pizzakurier Gossau,4.7
726,"Eschenstrasse 11, 9200 Gossau, Switzerland",47.41785400000001,9.269276,Restaurant zum alte Pflüegli,4.6
727,"Neuchlen, 9200 Gossau, Switzerland",47.422082,9.2894227,Speiserestaurant PANORAMA,4.2
728,"Gutenbergstrasse 7, 9200 Gossau, Switzerland",47.4143181,9.250426299999999,Restaurant Algarve,4.1
729,"Bischofszellerstrasse 13, 9200 Gossau, Switzerland",47.4163655,9.2454156,Hotel Landhaus,4.0
730,"Bahnhofpl. 1, 9200 Gossau, Switzerland",47.4122839,9.253136099999999,Restaurant Quellenhof,3.2
731,"Wilerstrasse 82, 9200 Gossau, Switzerland",47.417859,9.2366725,SUBWAY Sandwiches,4.3
732,"St. Gallerstrasse 54, 9200 Gossau, Switzerland",47.4160319,9.2501401,Toggi Gastro GmbH,3.7
733,"Wilerstrasse 90, 9200 Gossau, Switzerland",47.4190043,9.235137199999999,McDonald’s,3.8
735,"Wilerstrasse 46, 9200 Gossau, Switzerland",47.416732,9.239878,Hotel Moosburg,4.0
738,"Kasernenstrasse 91, 9101 Herisau, Switzerland",47.3918768,9.2937406,Restaurant Park Heinrichsbad,3.3
740,"Bernstrasse 31, 8952 Schlieren, Switzerland",47.402078,8.450267,Restaurant Sax,4.3
742,"Brandstrasse 29, 8952 Schlieren, Switzerland",47.4011911,8.4430635,Mezze Restaurant,4.7
743,"Zürcherstrasse 2, 8952 Schlieren, Switzerland",47.3972558,8.4482734,Rolli's,4.6
744,"Freiestrasse 14, 8952 Schlieren, Switzerland",47.39587,8.445784999999999,Stürmeierhuus,4.5
745,"Brandstrasse 37, 8952 Schlieren, Switzerland",47.4008025,8.4421056,Pizza e Pasta La Qualita,4.6
746,"Bahnhofstrasse 6, 8952 Schlieren, Switzerland",47.3989579,8.448359,Restaurant Amadeus,4.3
747,"Herrenwiesenstrasse 1, 8952 Schlieren, Switzerland",47.3972484,8.4397247,Trattoria Italiana - Restaurant & Pizzeria,4.3
748,"Zürcherstrasse 164, 8952 Schlieren, Switzerland",47.394852,8.469189,Casa Dão Lafões Schlieren,4.2
749,"Ringstrasse 5, 8952 Schlieren, Switzerland",47.39829779999999,8.447263099999999,Leon Café Bar / Smoker Lounge,4.4
750,"Bernstrasse 15, 8952 Schlieren, Switzerland",47.4008323,8.4622964,MAORI Pacific Rim Cuisine (Nachbarschaftstreffen),4.4
751,"Wagistrasse 23, 8952 Schlieren, Switzerland",47.39946,8.458928000000002,Enjoy Restaurant,4.1
752,"Nassackerstrasse 18, 8952 Schlieren, Switzerland",47.3951121,8.4417565,Restaurant Nassacker,4.2
755,"Gotthardstrasse 36, 8800 Thalwil, Switzerland",47.2966158,8.5631369,Chrottebach,4.0
756,"Tischenloostrasse 55, 8800 Thalwil, Switzerland",47.2851473,8.570012799999999,Restaurant Tisch 55,4.3
758,"Farbsteig 17, 8800 Thalwil, Switzerland",47.2939347,8.5673696,Restaurant Höfli,4.6
760,"Bahnhofstrasse 11, 8752 Näfels, Switzerland",47.0996484,9.0651522,Café-Konditorei Müller AG,4.4
761,"Hinterdorfstrasse 46, 8753 Mollis, Switzerland",47.0982764,9.0745597,Pizzeria Raben,4.4
762,"Autschachen 49, 8752 Näfels, Switzerland",47.1018662,9.0701456,Restaurant Eisenbahn Kern,4.2
763,"Alte Bahnhofstrasse 6, 8752 Näfels, Switzerland",47.0989584,9.0664734,Hotel-Restaurant National,4.1
764,"Bahnhofstrasse 2, 8753 Mollis, Switzerland",47.094246,9.075236,Hotel-Restaurant Löwen,4.4
765,"Rösslistrasse 30, 8752 Näfels, Switzerland",47.0987169,9.060872,Die Burgerei,4.8
766,"Vorderdorfstrasse 36, 8753 Mollis, Switzerland",47.09008470000001,9.0742657,Restaurant Bären,4.6
767,"Landstrasse 4, 8868 Oberurnen, Switzerland",47.1186237,9.0589523,Restaurant Pizzeria Alpenrose,4.5
768,"Kerenzerstrasse, 8753 Mollis, Switzerland",47.0958083,9.0777211,Gasthaus Waid,4.5
769,"Oberurnerstrasse 14, 8752 Näfels, Switzerland",47.108012,9.065244,Sportzentrum linth-arena sgu,4.1
770,"Oberseetal, 8752 Näfels, Switzerland",47.0913864,9.0338235,Restaurant Aeschen,4.9
771,"Molliserstrasse, 8753 Mollis, Switzerland",47.0775175,9.0655378,Restaurant Aviatico,4.2
772,"8867 Niederurnen, Switzerland",47.1276489,9.0520135,Schlössli Niederurnen,4.1
773,"Landstrasse 26, 8754 Netstal, Switzerland",47.0637584,9.0551173,Restaurant Bären Netstal,4.5
775,"153, St. Jakobs-Strasse, 4132 Muttenz, Switzerland",47.5352605,7.6282032,restaurant pizzeria freidorf,4.5
776,"Lutzertstrasse 38, 4132 Muttenz, Switzerland",47.533893,7.632793999999999,Restaurant & Pizzeria Cuor D’Oro Muttenz,4.5
777,"Baselstrasse 1, 4132 Muttenz, Switzerland",47.52270009999999,7.644928699999999,dr Egge,4.8
778,"Rössligasse 1, 4132 Muttenz, Switzerland",47.5254604,7.6473687,VICINO restaurant I bar I bowling,4.5
779,"Kirchpl. 7, 4132 Muttenz, Switzerland",47.5224497,7.6461089,Gasthof zum Rebstock,4.6
780,"Lutzertstrasse 38, 4132 Muttenz, Switzerland",47.5339306,7.6328997,Restaurant Muttenz,4.3
781,"Kriegackerstrasse 100, 4132 Muttenz, Switzerland",47.5353897,7.634214999999999,Restaurant Alessia,4.3
782,"Jakob Eglin-Strasse 3, 4132 Muttenz, Switzerland",47.5278146,7.6485465,Pizzeria Pisco,4.4
783,"Hofackerstrasse 72, 4132 Muttenz, Switzerland",47.5378417,7.633617899999999,Restaurant Pantheon,4.3
784,"St. Jakobs-Strasse 106, 4132 Muttenz, Switzerland",47.5321132,7.6336564,Restaurant Pizzeria RENNBAHN Muttenz - Italienische & CH-Küche Fleisch Fisch Hauslieferdienst,4.1
785,"Burggasse 2, 4132 Muttenz, Switzerland",47.5217837,7.6463453,Restaurant Schlüssel Paul und Rita Burger,4.5
786,"Birsstrasse 14, 4132 Muttenz, Switzerland",47.534892,7.623196999999999,Restaurant Crazy Horse,4.4
787,"St. Jakobs-Strasse 116, 4132 Muttenz, Switzerland",47.5326619,7.6311073,Pizzeria Bianca,4.2
788,"4132, Auhafenstrasse 51, 4127 Muttenz, Switzerland",47.5457773,7.652149699999999,Restaurant Auhafen,4.3
789,"Baselstrasse 87, 4132 Muttenz, Switzerland",47.5263763,7.637241200000001,Restaurant Schützenhaus,4.1
790,"Seminarstrasse 12-22, 4132 Muttenz, Switzerland",47.53407379999999,7.62456,Coop Tagungszentrum,4.5
792,"St. Jakobs-Strasse 161, 4132 Muttenz, Switzerland",47.5364315,7.6270785,Restaurant Stadion,4.4
793,"Hauptstrasse 22, 4132 Muttenz, Switzerland",47.5239334,7.6462474,Zur Waage,3.3
794,"Grenzacherstrasse 1, 4132 Muttenz, Switzerland",47.5331526,7.6474707,Anna's Restaurant,4.0
795,"Hauptstrasse 85, 4132 Muttenz, Switzerland",47.5268448,7.647121400000001,Café & More,4.3
796,"Im Brüggli 3, 4132 Muttenz, Switzerland",47.53313980000001,7.6439888,Restaurant Kaffikännli,4.1
797,"Haldenweg, 4132 Muttenz, Switzerland",47.5291522,7.625060899999999,Restaurant Depotstübli Rütihard,4.4
798,"Hofackerstrasse 15, 4132 Muttenz, Switzerland",47.5331049,7.6455118,Käppeli Pizzakurier Muttenz,4.5
801,"12, Egglisgraben 12B, 4133 Pratteln, Switzerland",47.5112315,7.673380399999999,Restaurant Egglisgraben,4.1
804,"Roosstrasse 40, 8105 Regensdorf, Switzerland",47.431366,8.471746999999999,Hot Wok,4.4
808,"Wehntalerstrasse 544, 8046 Zürich, Switzerland",47.4194146,8.5062528,Indian Restaurant Spice Garden,3.8
825,"Affolternstrasse 18, 8105 Regensdorf, Switzerland",47.429513,8.4647778,Buddha Bar,4.5
826,"24 Steinstrasse Adlikon bei, 8106 Regensdorf, Switzerland",47.45239,8.4620333,Restaurant Hot Wok zur Sonnhalde,4.5
827,"Wehntalerstrasse 202, 8105 Regensdorf, Switzerland",47.4445456,8.4669699,Furtbächli,4.6
828,"Watterstrasse 151, 8105 Regensdorf, Switzerland",47.4348889,8.471318,Thai Playa,4.3
831,"Althardstrasse 190, 8105 Regensdorf, Switzerland",47.44264,8.46608,Feedy's,4.4
834,"Watterstrasse 9, 8105 Regensdorf, Switzerland",47.4301103,8.465391,Hirschen,4.1
835,"Watterstrasse 185c, 8105 Regensdorf, Switzerland",47.4358022,8.4730286,Restaurant Röstihuus Hardegg,3.9
836,"Im Zentrum, 8105 Regensdorf, Switzerland",47.4312394,8.4685724,Hang Cheng,3.8
837,"Im Zentrum 1, 8105 Regensdorf, Switzerland",47.4309783,8.4700788,Migros Restaurant,3.7
838,"Wehntalerstrasse 290, 8106 Adlikon b. Regensdorf, Switzerland",47.448195,8.466842999999999,Pizzeria Il Palazzetto,3.8
839,"Watterstrasse 101, 8105 Regensdorf, Switzerland",47.43384100000001,8.4683669,Franco's Pizzaservice Regensdorf,4.2
840,"Im Zentrum 2, 8105 Regensdorf, Switzerland",47.43104049999999,8.4681988,Mövenpick Hotel Zürich Regensdorf,4.1
841,"Bahnhaldenstrasse 2, 8052 Zürich, Switzerland",47.419246,8.5468128,Gujarati Chaskaa,4.2
842,"Regensdorf, Im Zentrum 2, 8105 Zürich, Switzerland",47.4310008,8.4679564,Mövenpick,3.9
844,"Büelstrasse 1, 8106 Adlikon bei Regensdorf, Switzerland",47.446986,8.4662469,Restaurant Eckstein,4.3
846,"Feldstrasse 111, 8004 Zürich, Switzerland",47.37933880000001,8.5236337,sukh curry,3.7
847,"Niederhaslistrasse 4, 8105 Watt, Switzerland",47.443326,8.482246,Restaurant zum Türmli,4.4
849,"Rue du Simplon 32, 1880 Bex, Switzerland",46.247654,7.005103399999999,Indian Masala Takeaway,4.7
850,"Avenue du Théâtre 7, 1870 Monthey, Switzerland",46.254363,6.948638000000001,Restaurant du Théâtre,4.6
851,"Rue Pottier 2, 1870 Monthey, Switzerland",46.2519982,6.947604,Plik Thai Jan,4.3
852,"Place de l'Ecole 1, 1871 Monthey, Switzerland",46.23909099999999,6.951328999999999,Café Berra,4.7
853,"Rlle des Anges 3, 1870 Monthey, Switzerland",46.25305849999999,6.9475612,Downtown Burger-Bar,4.7
854,"Route de Pre-Berard 1, 1870 Monthey, Switzerland",46.246053,6.966404,Restaurant Les Ilettes,4.5
855,"Rue du Pont 2, 1870 Monthey, Switzerland",46.2511588,6.947155599999999,Pizzeria Capri Sarl,4.4
856,"Avenue du Crochetan 5, 1870 Monthey, Switzerland",46.2535638,6.9479197,Restaurant de l'AOMC,4.2
857,"Avenue de France 10, 1870 Monthey, Switzerland",46.2543933,6.9462912,Restaurant SHEK-O,4.2
858,"Place Centrale 7, 1870 Monthey, Switzerland",46.2514633,6.9474873,Restaurant La Nonna,3.9
859,"Avenue des Alpes 3, 1870 Monthey, Switzerland",46.2514341,6.9479064,Crêperie La Bigoudène,4.2
860,"Route de Choëx 27, 1870 Monthey, Switzerland",46.2446502,6.954188900000001,Café-Restaurant du Repos,4.2
861,"Les Giettes, Des Cerniers, 1871 Monthey, Switzerland",46.222901,6.958642999999999,Hotel Whitepod,4.8
862,"Route du Vernay 34, 1870 Monthey, Switzerland",46.2602235,6.9615877,La Croisée des Sports,4.0
863,"Avenue du Théâtre 6, 1870 Monthey, Switzerland",46.254333,6.948976099999999,Mr. Mauro Capelli,5.0
864,"Rue du Coppet 4, 1870 Monthey, Valais, Switzerland",46.2522644,6.9491369,Le Cardamom,4.4
865,"Solothurnerstrasse 6, 4600 Olten, Switzerland",47.3500712,7.9002333,Indian Palace,4.3
866,"Rue du Bourg 5, 1920 Martigny, Switzerland",46.0911633,7.0650945,Rangoli Restaurant Indien,3.4
873,"Sägereistrasse 21, 8152 Opfikon, Switzerland",47.4316454,8.5593573,Urban Spice,5.0
878,"Schaffhauserstrasse 58, 8152 Opfikon, Switzerland",47.4303556,8.5614474,Peking Garden,3.9
883,"Dorfstrasse 36, 8152 Opfikon, Switzerland",47.4315764,8.5766491,Wunderbrunnen,4.8
884,"Oberhauserstrasse 30, 8152 Glattbrugg, Switzerland",47.43141,8.566875399999999,Fujiya,4.6
885,"Mühlegasse 8, 8152 Opfikon, Switzerland",47.431372,8.572541,Hotel Restaurant Frohsinn,4.5
886,"Schaffhauserstrasse 116, 8152 Glattbrugg, Switzerland",47.4339179,8.5663357,China Fast & Good,4.6
888,"Europa-Strasse 6, 8152 Opfikon, Switzerland",47.4310333,8.560844099999999,Nok's Thai Food,4.6
889,"Oberhauserstrasse 30, 8152 Glattbrugg, Switzerland",47.4314585,8.566865,Sayori,4.3
890,"Europa-Strasse 19a, 8152 Opfikon, Switzerland",47.4338425,8.5614452,Moma,4.2
891,"Giebeleichstrasse 9, 8152 Opfikon, Switzerland",47.4299916,8.5613858,Mamma Mia,4.2
892,"Schaffhauserstrasse 116, 8152 Glattbrugg, Switzerland",47.43376989999999,8.566258399999999,Casa Alegria,4.4
893,"Schaffhauserstrasse 104, 8152 Opfikon, Switzerland",47.4328248,8.5651175,Levante,4.2
894,"Thurgauerstrasse 117, 8152 Opfikon, Switzerland",47.4237268,8.5585446,al Dente,4.2
895,"Sägereistrasse 29, 8152 Glattbrugg, Switzerland",47.4323962,8.557926199999999,twenty nine Restaurant & Café Bar,4.2
896,"Hohenbühlstrasse 10, 8152 Opfikon, Switzerland",47.4368533,8.5716494,Horizon10 Restaurant,3.5
897,"Wallisellerstrasse 7, 8152 Glattbrugg, Switzerland",47.4345583,8.567736199999999,Restaurant Szechuan,4.4
898,"Schaffhauserstrasse 70, 8152 Opfikon, Switzerland",47.4309529,8.562322,Suan Long,3.9
899,"Rohrholzstrasse 67, 8152 Glattbrugg, Switzerland",47.4401547,8.5578083,Runway 34,4.3
900,"Talackerstrasse 70, 8152 Glattbrugg, Switzerland",47.4290045,8.5648511,Gibeleich,4.4
901,"Schaffhauserstrasse 116, 8152 Glattbrugg, Switzerland",47.4338038,8.5665116,Löwen,4.6
903,"Walter Mittelholzerstrasse 8, 8152 Opfikon, Switzerland",47.4395246,8.5688482,Mövenpick Hotel Zürich Airport,4.2
904,"Walter Mittelholzerstrasse 8, 8152 Opfikon, Switzerland",47.4393742,8.5689115,Le Chalet Swiss Grill,3.7
905,"Schaffhauserstrasse 126, 8152 Glattbrugg, Switzerland",47.4348971,8.567826199999999,Restaurant Glatthof,3.9
906,"Boulevard Lilienthal 11, 8152 Opfikon, Switzerland",47.423776,8.562368,Lilienthal,4.3
907,"Dufaux-Strasse 1, 8152 Opfikon, Switzerland",47.422942,8.559118999999999,L'Unico,4.1
908,"Dufaux-Strasse 1, 8152 Opfikon, Switzerland",47.42282489999999,8.5590945,Kameha Grand Zürich,4.4
909,"Flughofstrasse 50, 8152 Opfikon, Switzerland",47.43751959999999,8.5624063,F50 - Bar Lounge Restaurant,3.6
910,"Wright-Strasse 9, 8152 Opfikon, Switzerland",47.4208353,8.558131099999999,Stars and Stripes - American Bar & Restaurant,3.7
911,"Schaffhauserstrasse 94A, 8152 Opfikon, Switzerland",47.4327682,8.5643048,OSCAR food & drink,4.3
912,"8152 Opfikon, Switzerland",47.4389399,8.5657924,Basilico,5.0
913,"PORTIKON, Thurgauerstrasse 130, 8152 Opfikon, Switzerland",47.4235471,8.560116299999999,Graf Z,0.0
914,"Schaffhauserstrasse 90, 8152 Glattbrugg, Switzerland",47.43207,8.563795,Doy Doy,3.9
918,"Mitteldorfstrasse 16, 3072 Ostermundigen, Switzerland",46.9566583,7.488672999999999,Restaurant Medio,0.0
923,"Poststrasse 6, 3072 Ostermundigen, Switzerland",46.9571553,7.482997999999999,SBB Restaurant Ostermundigen,4.0
925,"Oberdorfstrasse 50, 3072 Ostermundigen, Switzerland",46.9547149,7.489604000000001,Restaurant d'Schmitte,4.8
927,"Bernstrasse 52, 3072 Ostermundigen, Switzerland",46.95736100000001,7.486769,Aspendos Ostermundigen,3.9
928,"Bernstrasse 53, 3072 Ostermundigen, Switzerland",46.95739709999999,7.485796499999999,Ristorante Beaulieu GmbH,4.6
929,"Bernstrasse 5, 3072 Ostermundigen, Switzerland",46.9546958,7.4780117,Restaurant Waldeck,4.1
931,"Schermenweg 179, 3072 Ostermundigen, Switzerland",46.9575626,7.480958999999999,L'Osteria d'Abruzzo,4.4
932,"Rütiweg 98A, 3072 Ostermundigen, Switzerland",46.956187,7.507028,Restaurant Rüti Grill,4.2
935,"Dennigkofenweg 122, 3072 Ostermundigen, Switzerland",46.947437,7.490582,Restaurant Flamingo,3.7
936,"Bahnhofstrasse 2, 3072 Ostermundigen, Switzerland",46.9558341,7.4826567,Pizzeria Babylon Tümtürk + Kilinc,4.0
937,"Bernstrasse 114, 3072 Ostermundigen, Switzerland",46.956931,7.495981999999999,Migros Restaurant,3.9
938,"Rütiweg 98A, 3072 Ostermundigen, Switzerland",46.9561723,7.506881000000001,Grill And Go,4.2
939,"Obere Zollgasse 40, 3072 Ostermundigen, Switzerland",46.95815,7.491275999999999,N'ice Cream Ice & Cafe und Take Away,4.5
941,"Mittelholzerstrasse 30, 3006 Bern, Switzerland",46.958951,7.477927999999999,Aloha Café,4.6
942,"Belpstrasse 34, 3007 Bern, Switzerland",46.9434276,7.431776500000001,Ristorante Ottimo,4.7
944,"Bielstrasse 3, 4500 Solothurn, Switzerland",47.20833409999999,7.533269000000001,Caffé Restaurant Safran,4.6
945,"Güterstrasse 2, 4552 Derendingen, Switzerland",47.202536,7.582184,"Srignags House, Indian Restaurant",4.5
948,"Bahnhofstrasse 6, 2540 Grenchen, Switzerland",47.191723,7.3957596,Grenchner Hof,4.3
949,"Allerheiligenstrasse 218, 2540 Grenchen, Switzerland",47.19622769999999,7.369320699999999,Chappeli,4.5
950,"Lindenstrasse 41, 2540 Grenchen, Switzerland",47.1911317,7.3905165,Restaurant Parktheater,4.3
952,"Untergrenchenberg, 2540 Grenchen, Switzerland",47.221266,7.380476,Restaurant Untergrenchenberg,4.2
953,"Bettlachstrasse 36, 2540 Grenchen, Switzerland",47.1933185,7.398537,China-Restaurant Man Fu,4.2
954,"Kirchstrasse 50, 2540 Grenchen, Switzerland",47.1944893,7.393548300000001,Restaurant Sapori Antichi Mazzini,4.1
955,"Girardstrasse 19, 2540 Grenchen, Switzerland",47.1912965,7.3993943,La Trattoria am Girardplatz,4.0
956,"Centralstrasse 2, 2540 Grenchen, Switzerland",47.1927754,7.3959642,Baracoa Restaurant & Bar,4.2
957,"Solothurnstrasse 139, 2540 Grenchen, Switzerland",47.1945858,7.408180199999999,Spaghetteria Pizzeria Pomodoro,4.3
958,"Lindenstrasse, 2540 Grenchen, Switzerland",47.19104189999999,7.3907839,Parktheater Grenchen,3.8
959,"Marktpl. 22, 2540 Grenchen, Switzerland",47.1939854,7.3964978,Station 1,4.7
960,"Schmelzistrasse 31, 2540 Grenchen, Switzerland",47.2000829,7.3888878,Restaurant Feldschlösschen,4.2
961,"Obergrenchenberg, 2540 Grenchen, Switzerland",47.232339,7.397106,Restaurant Obergrenchenberg,4.3
962,"Marktpl. 7, 2540 Grenchen, Switzerland",47.19355299999999,7.396313999999999,Hotel Restaurant Passage,3.9
963,"Centralstrasse 52, 2540 Grenchen, Switzerland",47.1952513,7.3955427,Naifan 2 Thai Restaurant und Take Away,4.2
964,"Solothurnstrasse 4, 2543 Lengnau, Switzerland",47.182527,7.366475800000001,Naifan Thai-Restaurant Take Away,4.5
965,"Leimenstrasse 2, 2540 Grenchen, Switzerland",47.19295899999999,7.401184000000001,McDonald’s,3.5
966,"Bettlachstrasse 8, 2540 Grenchen, Switzerland",47.19267,7.3969,Centro-Lounge,4.3
967,"Freiestrasse 10, 2540 Grenchen, Switzerland",47.189815,7.399245199999999,Migros Restaurant,0.0
973,"Ctre du Village 1, 2043 Boudevilliers, Switzerland",47.0265418,6.8887244,Val-de-Ruz Pizza a l’emporter et livraison chezard cernier fontainemelon haut geneveys fontaine coffrane geneveys sur coffrane montmollin montezillon valangin Fenin vilars saule savagnier dombresson Villiers engollon et plus,4.2
974,"Grand-Rue 19, 2046 Fontaines, Switzerland",47.0438951,6.9003893,Restaurant Le Manoir de la Poste,4.4
975,"Rue Léo-Châtelain 11, 2063 Fenin-Vilars-Saules, Switzerland",47.02564080000001,6.922137999999999,Auberge du Chasseur - Maria & Sonny Sàrl,4.4
976,"Rue de la Maigroge 12, 2072 St Blaise, Switzerland",47.0141478,6.982020599999999,Restaurant de la Gare - Comme Chez Vous - Chez Alex Duarte,4.4
977,"Rue de l'Aurore 6, 2053 Cernier, Switzerland",47.05864099999999,6.9090579,Restaurant d'Evologia La Terrassiette,3.5
978,"Grand'Rue 34, 2054 Chézard-Saint-Martin, Switzerland",47.0638414,6.921181,Restaurant la Croix d'Or,4.1
979,"Rue de l'Eglise 4, 2063 Engollon, Switzerland",47.0386561,6.9230341,Terre Ô Fées,4.5
980,"Rue des Granges 7-9, 2034 Peseux, Switzerland",46.9879257,6.888682900000001,Jorgius Restaurant,4.5
981,"Rue de Flandres 2, 2000 Neuchâtel, Switzerland",46.9905941,6.928762799999999,In & Out,4.0
982,"Route de Fontaines 1, 2052 Fontainemelon, Switzerland",47.055909,6.890059,Restaurant Pizzeria de l'Union Fontainemelon,4.0
983,"Les Bugnenets 3, 2058 Le Pâquier, Switzerland",47.1189125,7.0005479,Bonne Auberge Les Bugnenets,4.3
984,"Grand'Rue 24, 2056 Dombresson, Switzerland",47.071821,6.957933,Michel Stangl,4.3
985,"Fbg de l'Hôpital 31, 2000 Neuchâtel, Switzerland",46.9942853,6.9352323,Ananda Café Boutique,5.0
986,"Rue de l'Hôtel-de-Ville 114, 2300 La Chaux-de-Fonds, Switzerland",47.0945364,6.841937199999999,Restaurant La Parenthèse,4.7
987,"Rue de la Serre 83, 2300 La Chaux-de-Fonds, Switzerland",47.0996725,6.823567199999999,Krishna Take away,4.7
989,"Kempttalstrasse 52, 8308 Illnau-Effretikon, Switzerland",47.4082099,8.72641,Rössli,4.6
990,"Hörnlistrasse 14, 8308 Illnau-Effretikon, Switzerland",47.4144687,8.717035,Restaurant Hörnli,4.4
991,"Effretikonerstrasse 64, 8308 Illnau-Effretikon, Switzerland",47.4161241,8.7178302,Gasthof zum Löwen,4.3
992,"Usterstrasse 6, 8308 Illnau, Switzerland",47.4080977,8.7246204,Steakhouse Frieden,4.6
993,"Usterstrasse 20, 8308 Illnau, Switzerland",47.40759329999999,8.7237296,"Ristorante Pizzeria Schmitte da Nino, Elmas Aliji",4.5
995,"Sportplatzstrasse 4, 8307 Illnau-Effretikon, Switzerland",47.4201135,8.701374699999999,Restaurant Sportzentrum,3.2
997,"Dorfstrasse 6, 8307 Illnau-Effretikon, Switzerland",47.4312985,8.6876889,Restaurant Nussbaum,4.7
998,"Schloss-Strasse 2, 8307 Illnau-Effretikon, Switzerland",47.4372643,8.736276199999999,Restaurant First,4.5
1000,"Bahnhofstrasse 21, 8307 Illnau-Effretikon, Switzerland",47.4260681,8.68635,Restaurant Bahnhöfli,4.4
1001,"Tannstrasse 25, 8307 Illnau-Effretikon, Switzerland",47.4262449,8.6830407,Banbua,4.6
1002,"Weiherstrasse 17, 8307 Illnau-Effretikon, Switzerland",47.4348284,8.6905168,Restaurant Lucky Bamboo,4.5
1005,"8, Metzgergasse, 3400 Burgdorf, Switzerland",47.05740489999999,7.6267184,Restaurant Serendib,4.7
1006,"Rütschelengasse 17, 3400 Burgdorf, Switzerland",47.0553451,7.627394499999999,Da Gino,4.3
1007,"Zeughausstrasse 4, 3400 Burgdorf, Switzerland",47.06375569999999,7.6151827,Asien Garden,4.2
1008,"Hofstatt 1, 3400 Burgdorf, Switzerland",47.055578,7.627152300000001,Taverna Aphrodite,4.8
1009,"Lyssachstrasse 80, 3400 Burgdorf, Switzerland",47.0597944,7.6132864,Restaurant National,4.4
1010,"Metzgergasse 8, 3400 Burgdorf, Switzerland",47.05740489999999,7.6267184,Serendib,5.0
1011,"Sägegasse 15c, 3400 Burgdorf, Switzerland",47.0554453,7.631370899999999,Restaurant Zur Gelben Ente - Markthalle Burgdorf AG,3.8
1012,"Sägegasse 33, 3400 Burgdorf, Switzerland",47.054123,7.629234,Landhaus Burgdorf Hotel & Restaurant,4.2
1013,"Metzgergasse 12, 3400 Burgdorf, Switzerland",47.0572884,7.626507399999999,Gedult GmbH,4.8
1014,"Rütschelengasse 17, 3400 Burgdorf, Switzerland",47.0553451,7.627394499999999,Restaurant Chin-Chin,3.5
1018,"Kantonsstrasse 18, 8807 Freienbach, Switzerland",47.2056844,8.7463245,Restaurant Obstgarten,4.6
1019,"Kantonsstrasse 37, 8807 Freienbach, Switzerland",47.20630999999999,8.749870999999999,Thai Lotus Waldisberg,4.8
1021,"Leutschenrain 19, 8807 Freienbach, Switzerland",47.2016281,8.7508093,Leutschenhaus,4.4
1022,"Oberdorfstrasse 8, 8808 Freienbach, Switzerland",47.1999237,8.7780919,Savannaketh,4.6
1023,"Kantonsstrasse 161, 8807 Freienbach, Switzerland",47.20378900000001,8.765388999999999,Ried,4.4
1024,"Schindellegistrasse 2, 8808 Freienbach, Switzerland",47.2008912,8.7773301,Restaurant Rössli,4.2
1026,"Talstrasse 33, 8808 Freienbach, Switzerland",47.199747,8.796838,pizza bella,4.3
1027,"Kirchstrasse 5, 8807 Freienbach, Switzerland",47.2065473,8.757130499999999,Gasthof Sonne,4.1
1028,"Schlyffistrasse 10, 8806 Freienbach, Switzerland",47.2009207,8.728415199999999,Asia-Kurier Bäch (CHOLON),3.4
1029,"Via della Motta 10, 6600 Locarno, Switzerland",46.1689941,8.7936324,Ristorante vegetariano Govinda,4.6
1030,"Via Bossi 1, 6600 Locarno, Switzerland",46.169083,8.79445,Ristorante Locanda Locarnese,4.3
1031,"Via Bartolomeo Rusca 8, 6600 Locarno, Switzerland",46.1688581,8.7932696,Caffè Bartolomeo,4.6
1032,"Via Marcacci 9, 6600 Locarno, Switzerland",46.1704732,8.7949424,La Trattoria,4.2
1033,"Astrastrasse 1, 3612 Steffisburg, Switzerland",46.771826,7.630863000000001,Restaurant Chili Corner,4.3
1035,"Poststrasse 2, 4410 Liestal, Switzerland",47.48405440000001,7.732098099999999,Restaurant India Palace,4.4
1036,"Oberemattstrasse 3, 4133 Pratteln, Switzerland",47.5184143,7.6943267,Restaurant Schlossgarten,4.4
1037,"19 Hertnerstrasse Pratteln, 4133, Switzerland",47.5247306,7.696957099999999,Bio-Restaurant LANDHOF,4.6
1038,"Burggartenstrasse 14, 4133 Pratteln, Switzerland",47.5208526,7.693091799999999,City Grill,4.2
1039,"Herr A. Kartal, Pratelln Bosanski ćevapi, Hauptstrasse 21, 4133 Pratteln, Switzerland",47.5174689,7.694800099999999,Restaurant Klemme - A.Kartal,4.3
1040,"Rheinfelderstrasse 2, 4133 Pratteln, Switzerland",47.5320634,7.673619500000001,Gasthof Solbad,4.5
1041,"Hauptstrasse 55, 4133 Pratteln, Switzerland",47.5169223,7.6978325,Ristorante Schützenstube,4.3
1042,"Schauenburgerstrasse 1, 4133 Pratteln, Switzerland",47.51695369999999,7.6950106,Restaurant Höfli,4.5
1043,"Hohenrainstrasse 12C, 4133 Pratteln, Switzerland",47.52427489999999,7.6936334,Restaurant Anaxo,4.0
1044,"Leuengrund 13, 4133 Pratteln, Switzerland",47.5156408,7.674665200000001,Restaurant Wystübli- Leuengrund,4.5
1045,"Gallenweg 22, 4133 Pratteln, Switzerland",47.5250149,7.694730099999999,Kentucky Saloon & Steakhouse,4.4
1047,"Breitestrasse 215, 4133 Pratteln, Switzerland",47.5207403,7.6699923,Restaurant Lachmatt,4.2
1048,"Burggartenstrasse 12, 4133 Pratteln, Switzerland",47.5212773,7.6929728,PIZZA SPICY ® FINE FOOD,4.4
1049,"Hauptstrasse 46, 4133 Pratteln, Switzerland",47.5167072,7.696452499999999,Restaurant Engel,3.9
1050,"Bahnhofstrasse 9, 4133 Pratteln, Switzerland",47.5216151,7.692060499999999,Ristorante - Grotto - Gianini,4.3
1051,"Oberfeldstrasse 21, 4133 Pratteln, Switzerland",47.5214783,7.703635399999999,Café Gehrenacker,4.3
1052,"Grüssenweg 10, 4133 Pratteln, Switzerland",47.5277119,7.690940599999998,My Wok Asia Restaurant,3.4
1053,"Schlossstrasse 15, 4133 Pratteln, Switzerland",47.5212198,7.694579099999999,Restaurant Muikku,3.7
1054,"Grüssenweg 21, 4133 Pratteln, Switzerland",47.5276939,7.688688999999999,IKEA Pratteln,4.3
1055,"Krummeneichstrasse 17, 4133 Pratteln, Switzerland",47.523817,7.703344,Hotel-Restaurant zur Krummen Eich,3.4
1056,"Götzisbodenweg 22, 4133 Pratteln, Switzerland",47.5271131,7.7005792,Burger King,3.9
1057,"Götzisbodenweg 20, 4133 Pratteln, Switzerland",47.5269564,7.7002151,Restop Pratteln - Autogrill,3.5
1058,"Rührbergweg 3, 4133 Pratteln, Switzerland",47.5260661,7.692229799999999,Nong Maad THAI FOOD,4.5
1059,"Rheinstrasse 20, 4302 Augst, Switzerland",47.535255,7.712962,Restaurant Dolcevita,3.7
1062,"Zugerstrasse 20, 6330 Cham, Switzerland",47.1815309,8.4624205,Isaan House,4.4
1063,"Sinserstrasse 4, 6330 Cham, Switzerland",47.1816574,8.4589207,Restaurant Rössli Cham,4.5
1064,"Dorfstrasse 47, 6332 Cham, Switzerland",47.2033389,8.432084,Restaurant Sonne,4.2
1065,"Zugerstrasse 7, 6330 Cham, Switzerland",47.181619,8.460265999999999,Krone,4.8
1066,"Luzernerstrasse 20, 6330 Cham, Switzerland",47.1795951,8.4576602,Raben,4.5
1068,"Sinserstrasse 8, 6330 Cham, Switzerland",47.1820793,8.4585946,capra,4.4
1070,"Kirchbühl 5, 6330 Cham, Switzerland",47.1798493,8.4589258,Café Plaza,4.5
1071,"Sinserstrasse 114, 6330 Cham, Switzerland",47.1937295,8.4435655,Ristorante Pizzeria Lindenhof Da Rocco,4.1
1072,"Schulhausstrasse 12, 6330 Cham, Switzerland",47.1809696,8.457789199999999,Wirtschaft Schiess,4.3
1073,"Luzernerstrasse 14, 6330 Cham, Switzerland",47.1800614,8.458341299999999,Landhaus Steirereck,4.2
1075,"Luzernerstrasse 19, 6330 Cham, Switzerland",47.1789858,8.4572943,La Campana,4.1
1076,"Villette, 6330 Cham, Switzerland",47.178432,8.460284999999999,Villa-Villette,4.2
1077,"6630, Zugerstrasse 53, 6330 Cham, Switzerland",47.1822827,8.4674956,Keyf Ocakbasi Grillhaus,4.2
1078,"Zugerstrasse 17, Neudorf Center, 6330 Cham, Switzerland",47.18186499999999,8.461955999999999,Chaophraya Thai Take Away,3.3
1079,"15, Zugerstrasse, 6330 Cham, Switzerland",47.181709,8.461204,Lorzenhof Brasserie & Café,4.1
1080,"Dorfpl. 1, 6330 Cham, Switzerland",47.181128,8.459768,Sofra zur Lorze,4.5
1081,"Luzernerstrasse 9, 6330 Cham, Switzerland",47.18036,8.458907,Flash Point GmbH,4.2
1082,"Dorfpl. 4, 6330 Cham, Switzerland",47.1810157,8.4592647,Cafe Luzia,4.3
1083,"Bahnhofstrasse 2, 6330 Cham, Switzerland",47.1786651,8.4574225,Hotel Restaurant Bahnhof,3.8
1084,"Zugerstrasse 53, 6330 Cham, Switzerland",47.1820664,8.4676831,Restaurant Rajasthan,3.3
1086,"Bahnhofstrasse 23, 9100 Herisau, Switzerland",47.3882827,9.276266999999999,Peng Lai,4.3
1087,"Alpsteinstrasse 49, 9100 Herisau, Switzerland",47.3741347,9.281534899999999,Lotusblume- China Restaurant,4.5
1089,"Buchenstrasse 13, 9100 Herisau, Switzerland",47.3873099,9.2816998,Thai Restaurant,4.6
1090,"Rütistrasse 1683, 9100 Herisau, Switzerland",47.3964746,9.2860081,Restaurant Rüti,4.4
1091,"Bahnhofstrasse 14, 9100 Herisau, Switzerland",47.38723299999999,9.277887,Restaurant MOO,4.3
1093,"Rechberg 2288, 9100 Herisau, Switzerland",47.3736375,9.3050914,Wirtschaft zum Rechberg,4.4
1094,"Schützenstrasse 11, 9100 Herisau, Switzerland",47.3900356,9.2823096,Restaurant Schafräti,4.6
1095,"Buchenstrasse 34, 9100 Herisau, Switzerland",47.3882491,9.2818308,Restaurant Adler,4.2
1096,"Oberdorfstrasse 1, 9100 Herisau, Switzerland",47.3855825,9.2792099,Restaurant zum Tannenbaum,4.5
1097,"Bahnhofstrasse 2, 9100 Herisau, Switzerland",47.3859411,9.2801179,Treffpunkt Restaurant & Bar,3.9
1098,"Zeughausstrasse 10, 9100 Herisau, Switzerland",47.386896,9.280505,Café Hotel Marktplatz,4.5
1099,"St. Gallerstrasse 20, 9100 Herisau, Switzerland",47.3914402,9.274915199999999,Kim Lang Asia Take Away,4.1
1100,"Kasernenstrasse 74, 9100 Herisau, Switzerland",47.3897352,9.2899882,Kiosk Lydia Mamma Gyros,4.6
1102,"Avenue de Vertou 2, 1110 Morges, Switzerland",46.5162778,6.499834,Chandigarh Tandoori,3.9
1103,"Avenue de Lonay 13, 1110 Morges, Switzerland",46.5196867,6.5076614,Le Gandhi,3.8
1105,"Kapellstrasse 4, 5610 Wohlen, Switzerland",47.3524367,8.2778179,Kulturbeiz Chappelehof,4.5
1106,"Industriestrasse 2, 5610 Wohlen, Switzerland",47.34928379999999,8.2628814,Chaophraya Thai Take Away,4.0
1107,"Zentralstrasse 28, 5610 Wohlen, Switzerland",47.3496096,8.2765617,Restaurant Bären,4.3
1108,"Zentralstrasse 12, 5610 Wohlen, Switzerland",47.35038429999999,8.2776459,Kebapistan Kebap Haus,3.7
1109,"Aargauerstrasse 2, 5610 Wohlen, Switzerland",47.350558,8.2688589,Cafe Limon Takeaway Ogul & Co.,4.1
1111,"Aarwangenstrasse 82, 4900 Langenthal, Switzerland",47.2238502,7.779213999999999,Indian Restaurant Shalimar,4.2
1112,"Dorfgasse 66, 4900 Langenthal, Switzerland",47.2092071,7.7750731,Singh Gastro GmbH,0.0
1119,"Schlossgasse 2, 4102 Binningen, Switzerland",47.5367927,7.574573,Schloss Binningen - Hotel & Gourmet Restaurant,4.5
1124,"Bottmingerstrasse 68, 4102 Binningen, Switzerland",47.5319568,7.5733957,Restaurant Bottmingermühle,4.0
1125,"Hauptstrasse 112, 4102 Binningen, Switzerland",47.5390072,7.572177399999999,Restaurant Jägerstübli,4.4
1126,"Bottmingerstrasse 1, 4102 Binningen, Switzerland",47.537488,7.5755566,Sushi Tenzan,4.4
1127,"Schmidlihof 3, 4102 Binningen, Switzerland",47.5401501,7.575688299999999,Restaurant Le MONOT,4.1
1128,"Hauptstrasse 127, 4102 Binningen, Switzerland",47.5379652,7.5714882,Restaurant Krone,4.1
1129,"Gorenmattstrasse 20, 4102 Binningen, Switzerland",47.5333161,7.570812699999999,"Café Restaurant Bijou, Fam. Mermer",4.4
1130,"Neubadrain 4, 4102 Binningen, Switzerland",47.5451509,7.563629199999999,Gasthof Neubad,4.2
1131,"Schlüsselgasse 1, 4102 Binningen, Switzerland",47.53936419999999,7.5749848,"Hotel Schlüssel, Restaurant Roccoco Cucina Italiana",4.1
1132,"Helmut Troger, Postgasse 3, 4102 Binningen, Switzerland",47.540439,7.574633,Restaurant Baselbieter,4.3
1133,"Baslerstrasse 31, 4102 Binningen, Switzerland",47.5400731,7.576288199999999,Schiff Gastro GmbH,4.3
1135,"Bottmingerstrasse 20, 4102 Binningen, Switzerland",47.5352974,7.5746243,Restaurant Spiesshöfli,3.7
1136,"St.Margarethengut, 4102 Binningen, Switzerland",47.5431239,7.5795901,Schällenursli,4.2
1137,"Hauptstrasse 113, 4102 Binningen, Switzerland",47.5384143,7.5719675,Restaurant Cent-Treize,3.7
1142,"Ilgenweidstrasse 14, 8840 Einsiedeln, Switzerland",47.1254423,8.750058899999999,Restaurant Klostergarten,4.5
1143,"Hauptstrasse 72, 8840 Einsiedeln, Switzerland",47.126822,8.7491817,Hotel St. Georg Einsiedeln,4.3
1145,"Eisenbahnstrasse 5, 8840 Einsiedeln, Switzerland",47.1290967,8.746254300000002,Asien Küche Wen-Wa-Kei,4.7
1146,"Mythenstrasse 1, 8840 Einsiedeln, Switzerland",47.1275821,8.7439463,Restaurant Walhalla,4.7
1147,"Hauptstrasse 76, 8840 Einsiedeln, Switzerland",47.126722,8.749564,Restaurant Zunfthaus Bären,4.4
1148,"Alpstrasse 6, 8840 Einsiedeln, Switzerland",47.1356529,8.7467679,Milchmanufaktur Einsiedeln,4.6
1149,"Jlgen-Weidstrasse 3, 8840 Einsiedeln, Switzerland",47.1249441,8.7507736,Gasthaus Meinradsberg,4.5
1150,"Heidenbühl 2, 8840 Einsiedeln, Switzerland",47.1310233,8.7438395,Restaurant Muang Thai,4.6
1151,"Lincolnweg 21, 8840 Einsiedeln, Switzerland",47.1318221,8.7593505,Restaurant Lincoln,4.6
1152,"Hauptstrasse 10, 8840 Einsiedeln, Switzerland",47.127329,8.74448,Restaurant Schifflände,4.4
1153,"Hauptstrasse 89, 8840 Einsiedeln, Switzerland",47.1271443,8.7499406,Pizzeria Romantica-Pfauen,4.2
1154,"Am Klosterplatz, Hauptstrasse 89, 8840 Einsiedeln, Switzerland",47.127072,8.750112999999999,Restaurant Tulipan,4.2
1155,"Paracelsuspark 1, 8840 Einsiedeln, Switzerland",47.1280504,8.7501413,Hotel Drei Könige AG,4.2
1156,"Hauptstrasse 28, 8840 Einsiedeln, Switzerland",47.1272354,8.7460238,Restaurant Sihlsee,4.2
1157,"Hauptstrasse 82, 8840 Einsiedeln, Switzerland",47.126449,8.749868,Hotel Sonne Einsiedeln AG,3.8
1158,"Hauptstrasse 79, 8840 Einsiedeln, Switzerland",47.1270309,8.7491183,Restaurant New China,4.1
1159,"Hauptstrasse 48, 8840 Einsiedeln, Switzerland",47.126937,8.7475779,La Fontanella Ristorante-Pizzeria,4.0
1160,"Bahnhofpl. 20, 8840 Einsiedeln, Switzerland",47.128409,8.745550699999999,Bäckerei Konditorei Schefer,4.5
1161,"Schmiedenstrasse 1, 8840 Einsiedeln, Switzerland",47.1277705,8.7457315,"Restaurant Schmiede, Inh. Monika Wetzel",4.6
1163,"8 Hauptstrasse, 8840, Switzerland",47.12745260000001,8.7441634,Pizza Kurier Avanti,4.9
1164,"Euthalerstrasse 29, 8844 Euthal am Sihlsee, Switzerland",47.097003,8.814352,Bürgi's Burehof,4.9
1165,"Hauptstrasse 69, 8840 Einsiedeln, Switzerland",47.127151,8.7485322,Bistro Krone Kebab,4.0
1166,"Etzel 3, 8847 Egg SZ, Switzerland",47.1674985,8.7665629,Restaurant Krone,4.6
1167,"Hauptstrasse 46, 8840 Einsiedeln, Switzerland",47.1269922,8.747492099999999,Sternen Bistro,0.0
1168,"Viale alle Cantine 24, 6850 Mendrisio, Switzerland",45.8794401,8.9866005,Grotto Bundi,4.6
1169,"Viale alle Cantine 10, 6850 Mendrisio, Switzerland",45.8782471,8.9871044,Osteria Lanterna,4.5
1170,"Via Gismonda 13, 6850 Mendrisio, Switzerland",45.86871120000001,8.9855061,Birreria Növ Matag,4.3
1171,"Via Pontico Virunio 1, 6850 Mendrisio, Switzerland",45.8693918,8.9863882,Ristorante Atenaeo Del Vino,4.4
1172,"Via Industria 6, 6850 Mendrisio, Switzerland",45.8693569,8.989625499999999,Ristorante Elvezia di Volonghi Maria e Carminati Fabio,4.6
1173,"Via Agostino Maspoli 37, 6850 Mendrisio, Switzerland",45.8635189,8.9780826,Igor Onusti Ristorante Pizzeria Liceo Sagl,4.4
1174,"18, Via Luigi Lavizzari, 6850 Mendrisio, Switzerland",45.8699947,8.9868097,"Anatolia - Bar, Ristorante, Pizzeria",4.1
1175,"Via Penate 7, 6850 Mendrisio, Switzerland",45.8768306,8.9799077,Old Wild West,3.8
1176,"Via Moree 3, 6850 Mendrisio, Switzerland",45.8724636,8.9805645,RISTORANTE BARAONDA - cocktail music bar,4.2
1177,"Via Alfonso Turconi 36, 6850 Mendrisio, Switzerland",45.8673063,8.984294499999999,Osteria Vignetta,4.7
1178,"Via Angelo Maspoli 7, 6850 Mendrisio, Switzerland",45.8738166,8.9794353,Dolce Tentazione,4.2
1179,"Via Angelo Maspoli 18, 6850 Mendrisio, Switzerland",45.8755034,8.9797628,Ristorante Foxgrill,3.4
1180,"Via Angelo Maspoli 17, 6850 Mendrisio, Switzerland",45.8744275,8.9782305,McDonald's,3.6
1181,"Corso Bello 4, 6850 Mendrisio, Switzerland",45.8696746,8.9877501,Ristorante Corso,4.3
1182,"Via Stella 10, 6850 Mendrisio, Switzerland",45.8717128,8.987841,Ristorante Mezza Luna,4.7
1183,"Via Angelo Maspoli 18, 6850 Mendrisio, Switzerland",45.8750678,8.9805421,CHALET SUISSE,3.3
1184,"Piazza della Stazione, 6850 Mendrisio, Switzerland",45.86850889999999,8.9786784,Hotel Milano,3.8
1185,"Via ai Grotti, 6874 Castel San Pietro, Switzerland",45.867774,9.006129,Grotto Loverciano,4.2
1186,"Via San Nicolao 7, 6872 Somazzo, Medrisio, Switzerland",45.8817963,8.988317499999999,Ristorante-Grotto Eremo S. Nicolao,4.5
1187,"Strehlgasse 3, 6430 Schwyz, Switzerland",47.0208032,8.6543908,Ratskeller Schwyz GmbH,4.7
1188,"Schulgasse 13, 6430 Schwyz, Switzerland",47.02185859999999,8.6537701,Brasserie Engel,4.6
1189,"Schlagstrasse 91, 6430 Schwyz, Switzerland",47.0325196,8.6444558,"Ineichen Zimmermann Franziska, Restaurant Alpina",3.8
1190,"6432 Schwyz, Switzerland",47.0211301,8.703412499999999,Restaurant Gipfelstubli,4.3
1191,"Riedstrasse 3, 6430 Schwyz, Switzerland",47.022111,8.653723,Gasthaus Schwyzer-Stubli,4.5
1192,"Archivgasse 6, 6430 Schwyz, Switzerland",47.0204313,8.6534747,"Ristorante Pizzeria La Piazzetta, Schwyz",4.5
1193,"Grundstrasse 133, 6430 Schwyz, Switzerland",47.0085102,8.6583458,Restaurant Schützenhaus,4.5
1194,"Zeughausstrasse 7, 6430 Schwyz, Switzerland",47.0213242,8.650803,Restaurant Hofmatt,4.4
1195,"Ibergereggstrasse, 6432 Rickenbach b. Schwyz, Switzerland",47.0098608,8.6868529,Windstock,4.6
1197,"6430 Schwyz, Switzerland",47.03033509999999,8.688850100000002,Restaurant Grosser Mythen,4.5
1198,"Schützenstrasse 15, 6430 Schwyz, Switzerland",47.019323,8.6553439,Imbisspudel,4.9
1199,"Hinterdorfstrasse 14, 6430 Schwyz, Switzerland",47.02047899999999,8.658304,Hirschen Backpacker-Hotel & Pub,4.4
1200,"Utohaus 1 Zwäckenstrasse Ibergeregg, 8843, Switzerland",47.0197286,8.7303296,Sonnenhütte – Bergbeizli / Restaurant (Utohaus),4.2
1202,"Schönenbuchstrasse 21, 6440 Brunnen, Switzerland",46.9994599,8.623518899999999,Restaurant Wendelstube,4.5
1203,"Schlagstrasse, 6422 Steinen, Switzerland",47.0612473,8.6209373,Restaurant Adelboden,4.7
1204,"Schlagstrasse 135, 6423 Seewen SZ, Switzerland",47.0469815,8.6291707,Restaurant Point,4.5
1205,"Aufiberg Plätzli 8, 6432 Rickenbach SZ, Switzerland",47.0013031,8.6797495,Restaurant Aufiberg,4.2
1206,"Landsgemeindestrasse 50, 6438 Ibach SZ, Switzerland",47.0058719,8.6470275,Restaurant Rose,4.5
1207,"Steinbislin 5, 6423 Seewen SZ, Switzerland",47.032348,8.628021,McDonald’s,3.9
1208,"Bielstrasse 53, 3250 Lyss, Switzerland",47.07836469999999,7.301877799999999,Restaurant Sonne,4.0
1209,"Hirschenpl. 3, 3250 Lyss, Switzerland",47.07416300000001,7.307115,Krua Thai Take-Away & Restaurant,4.6
1210,"Hardern 23, 3250 Lyss, Switzerland",47.08708009999999,7.329376,Restaurant Hardern Pintli,4.7
1211,"Hauptstrasse 17, 3250 Lyss, Switzerland",47.0732316,7.3073907,Schwanen,4.7
1213,"Marktpl. 15, 3250 Lyss, Switzerland",47.07291,7.305429999999999,Hotel Restaurant Weisses Kreuz,4.2
1214,"Bielstrasse 28, 3250 Lyss, Switzerland",47.07681729999999,7.3044983,Hotel Restaurant Pizzeria Spatz Lyss,3.8
1215,"Hauptstrasse 26, 3250 Lyss, Switzerland",47.072537,7.3074059,Schützen-Grill Lyss,4.5
1216,"Herrengasse 17, 3250 Lyss, Switzerland",47.0719526,7.305919299999998,Mexikanisches Restaurant Jägerstübli - Authentische Mexikanische Küche,4.8
1217,"Bielstrasse 16, 3250 Lyss, Switzerland",47.0759276,7.3051984,Petit Palace,4.7
1225,"St. Gallerstrasse 34A, 9320 Arbon, Switzerland",47.5114168,9.4280834,Indisches Restaurant Jagannath,4.7
1236,"Route d'Ambilly 39, 1226 Thônex, Switzerland",46.199127,6.220933,Restaurant le Cigalon Jean-Marc Bessire,4.7
1240,"Rue de Genève 106, 1226 Thônex, Switzerland",46.192597,6.201474000000001,"Pizzeria Ristorante Molino, Thônex",3.7
1241,"Avenue Tronchet 14, 1226 Thônex, Switzerland",46.1939153,6.204740399999999,Auberge de Thônex,4.3
1244,"Avenue Adrien-Jeandin 37, 1226 Thônex, Switzerland",46.1896652,6.200885,Restaurant La Terrasse,3.8
1245,"Route de Sous-Moulin 39, 1226 Thônex, Switzerland",46.18888399999999,6.1922631,Restaurant Trois Communes,4.0
1246,"Chemin de Marcelly 10, 1226 Thônex, Switzerland",46.1949709,6.2035642,Le Nautica,4.4
1247,"Rue de Genève 138, 1226 Thônex, Switzerland",46.1924064,6.2041527,La Golosa,3.9
1248,"Rue de Genève 123B, 1226 Thônex, Switzerland",46.1928894,6.2038956,PUROgusto - PUROgelato,4.6
1249,"Route de Jussy, 1226 Thônex, Switzerland",46.1956943,6.2009553,Da Reno,3.7
1250,"Rue de Genève 154, 1226 Thônex, Switzerland",46.1920086,6.2059884,Pizza Chicken Burger,3.1
1251,"Route de Villette 55, 1226 Thônex, Switzerland",46.18354840000001,6.1847715,Hôtel de Villette,3.1
1253,"118 Rue de Genève, 74240 Gaillard, France",46.1920872,6.210846999999999,Restaurant Phad Thai,4.3
1254,"5 Rue du Chablais, 74100 Annemasse, France",46.1957229,6.2362158,Le Punjabi Indian Restaurant,4.0
1255,"31 Rue de Genève, 74100 Ambilly, France",46.1917278,6.2208586,Best Fried Chicken,4.2
1256,"2 Rue d'Etrembières, 74100 Annemasse, France",46.19145719999999,6.233641599999999,Papadum,4.3
1258,"Zeughauspl. 30, 4410 Liestal, Switzerland",47.4849395,7.7356205,Restaurant Bären,3.7
1262,"Seestrasse 110, 8700 Küsnacht, Switzerland",47.3204784,8.578513899999999,Seerestaurant Steinburg,4.5
1263,"Florastrasse 5, 8700 Küsnacht, Switzerland",47.319014,8.582436,Il Cerchio,4.2
1265,"Seestrasse 120, 8700 Küsnacht, Switzerland",47.318986,8.578873999999999,Restaurant Sonnengalerie,4.4
1266,"Seestrasse 160, 8700 Küsnacht, Switzerland",47.315517,8.5799291,RICO'S,4.8
1267,"2, Karrenstrasse, 8700 Küsnacht, Switzerland",47.3105363,8.5882896,Restaurant GüggeliSternen,4.5
1268,"Alte Landstrasse 148, 8700 Küsnacht, Switzerland",47.3201634,8.5839838,Restaurant zum Weinberg,4.6
1269,"Florastrasse 22, 8700 Küsnacht, Switzerland",47.317879,8.582595999999999,Restaurant Chez Crettol/ Cave Valaisanne,4.6
1270,"Dorfstrasse 22, 8700 Küsnacht, Switzerland",47.31749490000001,8.5820478,Restaurant Falken,4.5
1271,"Untere Wiltisgasse 20, 8700 Küsnacht, Switzerland",47.3156123,8.5812009,Zum Trauben,4.4
