Unnamed: 0,Addresse,Lat,Lng,Name,Rating,Points,geometry
0,"Am Münsterhof, Waaggasse 7, 8001 Zürich, Switzerland",47.370115399999996,8.5402376,Orsini,4.6,POINT (8.540237599999999 47.3701154),POINT (8.540237599999999 47.3701154)
1,"Niederdorfstrasse 80, 8001 Zürich, Switzerland",47.3760283,8.5441542,La Pasta,4.4,POINT (8.544154199999999 47.3760283),POINT (8.544154199999999 47.3760283)
2,"Badenerstrasse 275, 8003 Zürich, Switzerland",47.3761366,8.5146914,Taverne da Angelo,4.4,POINT (8.5146914 47.3761366),POINT (8.5146914 47.3761366)
3,"Gertrudstrasse 37, 8003 Zürich, Switzerland",47.37339559999999,8.515301199999998,Da Michelangelo,4.5,POINT (8.515301199999998 47.37339559999999),POINT (8.515301199999998 47.37339559999999)
4,"Forchstrasse 168, 8032 Zürich, Switzerland",47.36020389999999,8.56573,Marcellino,4.8,POINT (8.56573 47.36020389999999),POINT (8.56573 47.36020389999999)
5,"Hohlstrasse 449, 8048 Zürich, Switzerland",47.3869398,8.5014775,Da Angela,4.6,POINT (8.5014775 47.3869398),POINT (8.5014775 47.3869398)
6,"In Gassen 6, 8001 Zürich, Switzerland",47.3707055,8.5407788,Bindella,4.3,POINT (8.5407788 47.3707055),POINT (8.5407788 47.3707055)
7,"Rudolfstrasse 6, 8008 Zürich, Switzerland",47.357036,8.5575,Gandria,4.9,POINT (8.557499999999999 47.357036),POINT (8.557499999999999 47.357036)
8,"Augustinergasse 25, 8001 Zürich, Switzerland",47.372217600000006,8.5387974,Cantinetta Antinori,4.3,POINT (8.5387974 47.37221760000001),POINT (8.5387974 47.37221760000001)
9,"Nordstrasse 182, 8037 Zürich, Switzerland",47.392419,8.531426,Tre Fratelli,4.5,POINT (8.531426 47.392419),POINT (8.531426 47.392419)
10,"Weberstrasse 14, 8004 Zürich, Switzerland",47.370915999999994,8.528327699999998,Il Giglio,4.5,POINT (8.528327699999998 47.37091599999999),POINT (8.528327699999998 47.37091599999999)
11,"Waaggasse 5/7, 8001 Zürich, Switzerland",47.3701028,8.539889500000001,Santa Lucia,4.1,POINT (8.539889500000001 47.3701028),POINT (8.539889500000001 47.3701028)
12,"Langstrasse 215, 8005 Zürich, Switzerland",47.383264000000004,8.530178,Cinque,4.2,POINT (8.530177999999999 47.383264),POINT (8.530177999999999 47.383264)
13,"Zeughausstrasse 61, 8004 Zürich, Switzerland",47.3763708,8.529277699999998,Italia,4.3,POINT (8.529277699999998 47.3763708),POINT (8.529277699999998 47.3763708)
14,"Stampfenbachstrasse 8, 8001 Zürich, Switzerland",47.377759000000005,8.543813,Commihalle,4.1,POINT (8.543813 47.377759),POINT (8.543813 47.377759)
15,"Sternenstrasse 11, 8002 Zürich, Switzerland",47.360042,8.534011300000001,L'altro,4.5,POINT (8.534011300000001 47.360042),POINT (8.534011300000001 47.360042)
16,"Dufourstrasse 161, 8008 Zürich, Switzerland",47.35496,8.55498,Riviera Enoteca con Cucina,4.7,POINT (8.55498 47.35496),POINT (8.55498 47.35496)
17,"Ohmstrasse 11, 8050 Zürich, Switzerland",47.41018520000001,8.545874999999999,Concerto,4.2,POINT (8.545874999999999 47.41018520000001),POINT (8.545874999999999 47.41018520000001)
18,"Luisenstrasse 40, 8005 Zürich, Switzerland",47.384228,8.530403,Cucina,4.2,POINT (8.530403 47.384228),POINT (8.530403 47.384228)
19,"Albisstrasse 25, 8038 Zürich, Switzerland",47.34400249999999,8.5318761,Casa Nostrana,4.7,POINT (8.5318761 47.34400249999999),POINT (8.5318761 47.34400249999999)
20,"Dufourstrasse 1, 8008 Zürich, Switzerland",47.364525,8.547442799999999,Conti,4.3,POINT (8.547442799999999 47.364525),POINT (8.547442799999999 47.364525)
21,"Nansenstrasse 9, 8050 Zürich, Switzerland",47.41071029999999,8.544783899999999,Mamma Mia,3.9,POINT (8.544783899999999 47.41071029999999),POINT (8.544783899999999 47.41071029999999)
22,"Mainaustrasse 23, 8008 Zürich, Switzerland",47.36069129999999,8.549922800000001,Amalfi,4.3,POINT (8.549922800000001 47.36069129999999),POINT (8.549922800000001 47.36069129999999)
23,"Rotwandstrasse 49, 8004 Zürich, Switzerland",47.375514200000005,8.528422599999999,L'Osteria Mamma Leone,4.4,POINT (8.528422599999999 47.3755142),POINT (8.528422599999999 47.3755142)
24,"Niederdorfstrasse 33, 8001 Zürich, Switzerland",47.3746714,8.543707800000002,Tre Cucine,3.8,POINT (8.543707800000002 47.3746714),POINT (8.543707800000002 47.3746714)
25,"Löwenstrasse 61, 8001 Zürich, Switzerland",47.376963700000005,8.537999699999999,Spiga,4.1,POINT (8.537999699999999 47.3769637),POINT (8.537999699999999 47.3769637)
26,"Badenerstrasse 526, 8048 Zürich, Switzerland",47.382678000000006,8.50113,Da Cono,3.9,POINT (8.50113 47.38267800000001),POINT (8.50113 47.38267800000001)
27,"Forchstrasse 2, 8008 Zürich, Switzerland",47.364373,8.554728899999999,Sorrento,4.1,POINT (8.554728899999999 47.364373),POINT (8.554728899999999 47.364373)
28,"Lavaterstrasse 87, 8002 Zürich, Switzerland",47.36025530000001,8.5333044,Il Tartufo,4.3,POINT (8.5333044 47.36025530000001),POINT (8.5333044 47.36025530000001)
29,"Waffenplatzstrasse 15, 8002 Zürich, Switzerland",47.361196,8.526721499999999,Don Leone,4.3,POINT (8.526721499999999 47.361196),POINT (8.526721499999999 47.361196)
30,"Limmattalstrasse 228, 8049 Zürich, Switzerland",47.40228159999999,8.495140699999999,Da Biagio,4.4,POINT (8.495140699999999 47.40228159999999),POINT (8.495140699999999 47.40228159999999)
31,"Spitalgasse 5, 8001 Zürich, Switzerland",47.3736493,8.5442957,Cicchetteria Da Rosa,4.5,POINT (8.544295699999999 47.3736493),POINT (8.544295699999999 47.3736493)
32,"Niederdorfstrasse 15, 8001 Zürich, Switzerland",47.37350319999999,8.543577599999999,Vallocaia,4.0,POINT (8.543577599999999 47.37350319999999),POINT (8.543577599999999 47.37350319999999)
33,"Seefeldstrasse 273, 8008 Zürich, Switzerland",47.3488968,8.5633246,La Zagra,4.4,POINT (8.5633246 47.3488968),POINT (8.5633246 47.3488968)
34,"Niederdorfstrasse 7, 8001 Zürich, Switzerland",47.373008500000005,8.5435806,Pulcino,3.9,POINT (8.5435806 47.3730085),POINT (8.5435806 47.3730085)
35,"Hohlstrasse 451, 8048 Zürich, Switzerland",47.38708219999999,8.500952500000002,Azzurro,4.5,POINT (8.500952500000002 47.38708219999999),POINT (8.500952500000002 47.38708219999999)
36,"Mühlebachstrasse 2, 8008 Zürich, Switzerland",47.3659318,8.548956599999999,Commercio,4.2,POINT (8.548956599999999 47.3659318),POINT (8.548956599999999 47.3659318)
37,"Zentralstrasse 161, 8003 Zürich, Switzerland",47.375878,8.514154999999999,Il Salotto,4.7,POINT (8.514154999999999 47.375878),POINT (8.514154999999999 47.375878)
38,"Limmatquai 82, 8001 Zürich, Switzerland",47.3735174,8.543035,Bianchi,4.4,POINT (8.543035 47.3735174),POINT (8.543035 47.3735174)
39,"Stauffacherstrasse 31, 8004 Zürich, Switzerland",47.3735098,8.528681,"Pizzeria Ristorante Molino, Stauffacher",4.1,POINT (8.528681000000001 47.3735098),POINT (8.528681000000001 47.3735098)
40,"Bellerivestrasse 2, 8008 Zürich, Switzerland",47.360935,8.547989999999999,Frascati,3.8,POINT (8.547989999999999 47.360935),POINT (8.547989999999999 47.360935)
41,"Schmidgasse 3, 8001 Zürich, Switzerland",47.3747542,8.5435477,Toscano,4.6,POINT (8.5435477 47.3747542),POINT (8.5435477 47.3747542)
42,"Sandstrasse 7, 8003 Zürich, Switzerland",47.366224,8.521243799999999,Napoli,3.9,POINT (8.521243799999999 47.366224),POINT (8.521243799999999 47.366224)
43,"Kanzleistrasse 103, 8004 Zürich, Switzerland",47.376152000000005,8.522207,La Baracca,4.4,POINT (8.522207 47.376152),POINT (8.522207 47.376152)
44,"Kasernenstrasse 77A, 8004 Zürich, Switzerland",47.3760875,8.5338356,Cucina,4.2,POINT (8.5338356 47.3760875),POINT (8.5338356 47.3760875)
45,"Stampfenbachstrasse 6, 8001 Zürich, Switzerland",47.37750279999999,8.543925400000001,Positano,4.2,POINT (8.543925400000001 47.37750279999999),POINT (8.543925400000001 47.37750279999999)
46,"Freiestrasse 213, 8032 Zürich, Switzerland",47.360867999999996,8.566563,Antiquario da Marco,4.7,POINT (8.566563 47.360868),POINT (8.566563 47.360868)
47,"Bertastrasse 36, 8003 Zürich, Switzerland",47.37410149999999,8.5135446,Bottega Berta,4.3,POINT (8.513544599999999 47.37410149999999),POINT (8.513544599999999 47.37410149999999)
48,"Seestrasse 82, 8002 Zürich, Switzerland",47.3596841,8.5318615,Da Guido,3.9,POINT (8.5318615 47.3596841),POINT (8.5318615 47.3596841)
49,"Mutschellenstrasse 137, 8038 Zürich, Switzerland",47.346956,8.5286941,Allegro,4.3,POINT (8.528694099999999 47.346956),POINT (8.528694099999999 47.346956)
50,"Hardstrasse 324, 8005 Zürich, Switzerland",47.390332,8.522853,il Gallo,3.9,POINT (8.522853 47.390332),POINT (8.522853 47.390332)
51,"Seegartenstrasse 14, 8008 Zürich, Switzerland",47.3613908,8.5493898,Latino,4.1,POINT (8.5493898 47.3613908),POINT (8.5493898 47.3613908)
52,"Seefeldstrasse 124, 8008 Zürich, Switzerland",47.35804829999999,8.553900800000001,Ristorante Totò,3.9,POINT (8.553900800000001 47.35804829999999),POINT (8.553900800000001 47.35804829999999)
53,"18, Giessereistrasse, 8005 Zürich, Switzerland",47.3900388,8.517926899999999,Toscano in Puls 5,3.9,POINT (8.517926899999999 47.3900388),POINT (8.517926899999999 47.3900388)
54,"Langstrasse 35, 8004 Zürich, Switzerland",47.375842799999994,8.525040299999999,Celia,4.5,POINT (8.525040299999999 47.37584279999999),POINT (8.525040299999999 47.37584279999999)
55,"Brauerstrasse 87, 8004 Zürich, Switzerland",47.3792628,8.524118999999999,Chianalea,4.4,POINT (8.524118999999999 47.3792628),POINT (8.524118999999999 47.3792628)
56,"Cramerstrasse 8, 8004 Zürich, Switzerland",47.3732268,8.5261234,Paneolio,4.3,POINT (8.526123399999999 47.3732268),POINT (8.526123399999999 47.3732268)
57,"Eingang Langwiesenstr., Birchstrasse 147, 8050 Zürich, Switzerland",47.410906,8.537688000000001,Virtù,4.5,POINT (8.537688000000001 47.410906),POINT (8.537688000000001 47.410906)
58,"Asylstrasse 81, 8032 Zürich, Switzerland",47.366809100000005,8.561675099999999,Luca²,4.8,POINT (8.561675099999999 47.3668091),POINT (8.561675099999999 47.3668091)
59,"Riedtlistrasse 2, 8006 Zürich, Switzerland",47.3902217,8.539980900000002,La Casa,4.4,POINT (8.539980900000002 47.3902217),POINT (8.539980900000002 47.3902217)
60,"Quai des Bergues 33, 1201 Genève, Switzerland",46.2069972,6.1469217999999985,Il Lago,4.5,POINT (6.146921799999999 46.2069972),POINT (6.146921799999999 46.2069972)
61,"Rue Chaponnière 9, 1201 Genève, Switzerland",46.2096185,6.144898599999999,Restaurant MILAN,3.9,POINT (6.144898599999999 46.2096185),POINT (6.144898599999999 46.2096185)
62,"Rue de la Fontaine 13, 1204 Genève, Switzerland",46.2013855,6.1497677999999985,Spaghetti Factory Genève,4.2,POINT (6.149767799999998 46.2013855),POINT (6.149767799999998 46.2013855)
63,"Rue de la Servette 73, 1202 Genève, Switzerland",46.212252,6.132287,Restaurant Pizzeria Il Forno a Legna,4.3,POINT (6.132287 46.212252),POINT (6.132287 46.212252)
64,"Hôtel Métropole Genève, Quai du Général-Guisan 34, 1204 Geneva, Switzerland",46.203376,6.152146,Gusto,3.6,POINT (6.152146 46.203376),POINT (6.152146 46.203376)
65,"Rue Adrien-Lachenal 24a, 1207 Genève, Switzerland",46.199324100000005,6.1561736,Luigia,4.2,POINT (6.1561736 46.19932410000001),POINT (6.1561736 46.19932410000001)
66,"Rue Jean-Calvin 15, 1204 Genève, Switzerland",46.2018658,6.1472850999999995,La Favola,4.4,POINT (6.1472851 46.2018658),POINT (6.1472851 46.2018658)
67,"Avenue des Tilleuls 2, 1203 Genève, Switzerland",46.2058244,6.1310148,Restaurant les Tilleuls,4.2,POINT (6.1310148 46.2058244),POINT (6.1310148 46.2058244)
68,"Rue de Saint-Jean 30, 1203 Genève, Switzerland",46.2044031,6.1287129999999985,Restaurant Giardino Romano,4.5,POINT (6.128712999999999 46.2044031),POINT (6.128712999999999 46.2044031)
69,"Rue Pierre-Fatio 10, 1204 Genève, Switzerland",46.2022246,6.1533666999999985,Restaurant Roberto,4.2,POINT (6.153366699999999 46.2022246),POINT (6.153366699999999 46.2022246)
70,"Boulevard Carl-Vogt 99, 1205 Genève, Switzerland",46.1954849,6.1407175,Mangia Bene,4.4,POINT (6.1407175 46.1954849),POINT (6.1407175 46.1954849)
71,"Rue de la Mairie 8, 1207 Genève, Switzerland",46.20265939999999,6.1582715,TOSCA,4.5,POINT (6.1582715 46.20265939999999),POINT (6.1582715 46.20265939999999)
72,"Place de Saint-Gervais 3, 1201 Genève, Switzerland",46.2061174,6.142444299999998,Vapiano,4.0,POINT (6.142444299999998 46.2061174),POINT (6.142444299999998 46.2061174)
73,"Rue de Montchoisy 17, 1207 Genève, Switzerland",46.203301200000006,6.160108399999999,Cinecittà | Restaurant et Pizzeria,4.2,POINT (6.160108399999999 46.20330120000001),POINT (6.160108399999999 46.20330120000001)
74,"Rue Muzy 22, 1207 Genève, Switzerland",46.20311539999999,6.157067899999999,Chez Marino,4.5,POINT (6.157067899999999 46.20311539999999),POINT (6.157067899999999 46.20311539999999)
75,"Rue de la Corraterie 21, 1204 Genève, Switzerland",46.20192309999999,6.1438254,La Bottega,4.4,POINT (6.1438254 46.20192309999999),POINT (6.1438254 46.20192309999999)
76,"Place du Molard 7, 1204 Genève, Switzerland",46.2032557,6.1480513,Pizzeria Ristorante Molino,3.8,POINT (6.1480513 46.2032557),POINT (6.1480513 46.2032557)
77,"Quai du Cheval-Blanc 23, 1227 Genève, Switzerland",46.1924348,6.1389752999999985,Pizzeria Calabria Dai 3 Fratelli Scalea,4.3,POINT (6.138975299999998 46.1924348),POINT (6.138975299999998 46.1924348)
78,"Boulevard Georges-Favon 12, 1204 Genève, Switzerland",46.203137100000006,6.139835,Kytaly,4.2,POINT (6.139835 46.20313710000001),POINT (6.139835 46.20313710000001)
79,"Grand-Rue 3, 1204 Genève, Switzerland",46.2024657,6.1448266999999985,Osteria della Bottega,4.3,POINT (6.144826699999999 46.2024657),POINT (6.144826699999999 46.2024657)
80,"Chemin Malombré 5, 1206 Genève, Switzerland",46.1959427,6.1525281,Nonna Gina,3.9,POINT (6.1525281 46.1959427),POINT (6.1525281 46.1959427)
81,"Rue des Barques 4, 1207 Genève, Switzerland",46.203922,6.155715,La Gondola,4.1,POINT (6.155715 46.203922),POINT (6.155715 46.203922)
82,"Rue de la Mairie 5, 1207 Genève, Switzerland",46.203193,6.158078,Restaurant Pizzeria San Marco,4.2,POINT (6.158078 46.203193),POINT (6.158078 46.203193)
83,"Rue de la Rôtisserie 2, 1204 Genève, Switzerland",46.202975099999996,6.1454870999999995,La Romantica,3.9,POINT (6.1454871 46.2029751),POINT (6.1454871 46.2029751)
84,"Rue Etienne-Dumont 18, 1204 Genève, Switzerland",46.1991968,6.149316099999999,Restaurant Semplice,4.3,POINT (6.149316099999999 46.1991968),POINT (6.149316099999999 46.1991968)
85,"Boulevard Georges-Favon 25, 1204 Genève, Switzerland",46.2006435,6.140933299999999,Carosello,4.0,POINT (6.140933299999999 46.2006435),POINT (6.140933299999999 46.2006435)
86,"Rue Charles-Humbert 10, 1205 Genève, Switzerland",46.200398,6.138348000000001,Fabbrica Pasta,4.6,POINT (6.138348000000001 46.200398),POINT (6.138348000000001 46.200398)
87,"Rue Philippe-Plantamour 18, 1201 Genève, Switzerland",46.210113899999996,6.1507234,"Il Vero, Restaurant italien",3.8,POINT (6.1507234 46.2101139),POINT (6.1507234 46.2101139)
88,"1205, Boulevard du Pont-d'Arve 51, 1205 Genève, Switzerland",46.1942343,6.140967400000001,Leo's restaurant pizzeria burger,4.1,POINT (6.140967400000001 46.1942343),POINT (6.140967400000001 46.1942343)
89,"Rue des Alpes 20, 1201 Genève, Switzerland",46.2103908,6.144728799999998,Restaurant La Veranda Genève,4.0,POINT (6.144728799999998 46.2103908),POINT (6.144728799999998 46.2103908)
90,"Rue des Eaux-Vives 63, 1207 Genève, Switzerland",46.2051411,6.1600303,Le Décanteur,4.3,POINT (6.1600303 46.2051411),POINT (6.1600303 46.2051411)
91,"62BIS, Route de Frontenex, 1207 Genève, Switzerland",46.2029256,6.1670764,La Storia,4.1,POINT (6.1670764 46.2029256),POINT (6.1670764 46.2029256)
92,"Route de Florissant 16, 1206 Genève, Switzerland",46.1959783,6.1554479,Le Sesflo - cuisine méditerranéenne,3.9,POINT (6.1554479 46.1959783),POINT (6.1554479 46.1959783)
93,"Rue du Stand 38, 1204 Genève, Switzerland",46.20328170000001,6.137884499999998,Restaurant Camilo's Place,4.2,POINT (6.137884499999998 46.20328170000001),POINT (6.137884499999998 46.20328170000001)
94,"Avenue du Mail 3, 1205 Genève, Switzerland",46.200331,6.139745400000001,La Pignata,4.2,POINT (6.139745400000001 46.200331),POINT (6.139745400000001 46.200331)
95,"Rue de Lausanne 49, 1202 Genève, Switzerland",46.214138,6.1458154,Casa Nostra Ristorante,4.0,POINT (6.1458154 46.214138),POINT (6.1458154 46.214138)
96,"Rue de Montchoisy 78, 1207 Genève, Switzerland",46.2053234,6.1642991999999985,Et Caetera Cafe Restaurant,4.1,POINT (6.164299199999999 46.2053234),POINT (6.164299199999999 46.2053234)
97,"Rue de l'Athénée 44, 1206 Genève, Switzerland",46.194263,6.155295,Zio,4.2,POINT (6.155295 46.194263),POINT (6.155295 46.194263)
98,"Rue de la Servette 1 La Trattoria Da Tonino, 1201, Switzerland",46.208830999999996,6.139751,"La Trattoria, da Tonino",4.1,POINT (6.139751 46.208831),POINT (6.139751 46.208831)
99,"29, Avenue du Mail, 1205 Geneva, Switzerland",46.1956378,6.140962200000001,Seppia Bistrò,4.6,POINT (6.140962200000001 46.1956378),POINT (6.140962200000001 46.1956378)
100,"Boulevard Carl-Vogt 20, 1205 Genève, Switzerland",46.20021939999999,6.1316863,i-Pub,4.2,POINT (6.1316863 46.20021939999999),POINT (6.1316863 46.20021939999999)
101,"Rue Sautter 11, 1205 Genève, Switzerland",46.1948708,6.1493991999999995,Le Vivendo,3.8,POINT (6.1493992 46.1948708),POINT (6.1493992 46.1948708)
102,"Avenue du Mail 21, 1205 Genève, Switzerland",46.1971689,6.13955,Restaurant Tortellino,4.2,POINT (6.13955 46.1971689),POINT (6.13955 46.1971689)
103,"Boulevard Carl-Vogt 43, 1205 Genève, Switzerland",46.1990553,6.1343608,Sole Mio,4.1,POINT (6.1343608 46.1990553),POINT (6.1343608 46.1990553)
104,"Route de Frontenex 43, 1207 Genève, Switzerland",46.202124,6.163001,Restaurant Ferrari,4.0,POINT (6.163001 46.202124),POINT (6.163001 46.202124)
105,"63, Boulevard du Pont-d'Arve, 1205 Genève, Switzerland",46.19348239999999,6.140099900000001,Pizzeria Ponte Vecchio,3.9,POINT (6.140099900000001 46.19348239999999),POINT (6.140099900000001 46.19348239999999)
106,"Place du Marché 20, 1227 Carouge, Switzerland",46.18421379999999,6.1395743,Via Roma Ristorante,4.3,POINT (6.1395743 46.18421379999999),POINT (6.1395743 46.18421379999999)
107,"82, Rue de Carouge, 1205 Geneva, Switzerland",46.19195300000001,6.1436910000000005,"Pizzeria Restaurant café ""Les Vignettes""",4.5,POINT (6.143691 46.19195300000001),POINT (6.143691 46.19195300000001)
108,"Rue de l'Athénée 44, 1206 Genève, Switzerland",46.194263299999996,6.1552953,Zio Italian Food Sàrl,4.7,POINT (6.1552953 46.1942633),POINT (6.1552953 46.1942633)
109,"Avenue Louis-Casaï 82, 1216 Genève, Switzerland",46.225944,6.106160999999998,L'Osteria di Oreste,4.2,POINT (6.106160999999998 46.225944),POINT (6.106160999999998 46.225944)
110,"Rue de la Cité 11, 1204 Genève, Switzerland",46.20317429999999,6.1441619,Restaurant la Finestra,4.6,POINT (6.1441619 46.20317429999999),POINT (6.1441619 46.20317429999999)
111,"Avenue de Champel 45, 1206 Genève, Switzerland",46.19255649999999,6.153159099999999,Osteria Zaza,4.3,POINT (6.153159099999999 46.19255649999999),POINT (6.153159099999999 46.19255649999999)
112,"Avenue de Frontenex 32, 1207 Genève, Switzerland",46.201429600000004,6.1587631,Restaurant Le Velours,4.2,POINT (6.1587631 46.2014296),POINT (6.1587631 46.2014296)
113,"Rue de Berne 61, 1201 Genève, Switzerland",46.2133064,6.147925300000002,CIRO Trattoria Gourmet,4.6,POINT (6.147925300000002 46.2133064),POINT (6.147925300000002 46.2133064)
114,"Route des Acacias 4, 1227 Genève, Switzerland",46.192385200000004,6.1382132999999985,Restaurant La Voglia,3.8,POINT (6.138213299999999 46.1923852),POINT (6.138213299999999 46.1923852)
115,"Place du Rondeau 4, 1227 Carouge, Switzerland",46.180404100000004,6.1392248999999985,Restaurant Boccalino,4.0,POINT (6.139224899999999 46.1804041),POINT (6.139224899999999 46.1804041)
116,"Route de Meyrin 8, 1202 Genève, Switzerland",46.214381,6.128372,La Primavera,4.1,POINT (6.128372 46.214381),POINT (6.128372 46.214381)
117,"Rue de Lausanne 52, 1201 Genève, Switzerland",46.214206,6.1464097,Il Fornello Napoletano,4.1,POINT (6.1464097 46.214206),POINT (6.1464097 46.214206)
118,"Rue Châtelain 5, 1203 Genève, Switzerland",46.21154,6.1262887,Restaurant italien Pizzeria l'ambiance Genève,4.4,POINT (6.1262887 46.21154),POINT (6.1262887 46.21154)
119,"Rue de la Terrassière 22, 1207 Genève, Switzerland",46.2006751,6.1574008000000005,"La Conca D Oro, Becker Cerf E.",4.6,POINT (6.1574008 46.2006751),POINT (6.1574008 46.2006751)
120,"Küchengasse 3, 4051 Basel, Switzerland",47.548837899999995,7.5894948000000015,Ristorante Da Roberto,4.2,POINT (7.589494800000002 47.5488379),POINT (7.589494800000002 47.5488379)
121,"Aeschenvorstadt 48, 4051 Basel, Switzerland",47.5519524,7.593385899999999,Restaurant Prima,4.1,POINT (7.593385899999999 47.5519524),POINT (7.593385899999999 47.5519524)
122,"Falknerstrasse 31, 4001 Basel, Switzerland",47.555562200000004,7.5893481,Latini,4.2,POINT (7.5893481 47.5555622),POINT (7.5893481 47.5555622)
123,"St. Johanns-Vorstadt 48, 4056 Basel, Switzerland",47.564221,7.584163999999999,Chez Donati,4.5,POINT (7.584163999999999 47.564221),POINT (7.584163999999999 47.564221)
124,"Birsig-Parkpl. 26, 4051 Basel, Switzerland",47.551728000000004,7.588095900000001,Artigiano Café,4.5,POINT (7.588095900000001 47.551728),POINT (7.588095900000001 47.551728)
125,"Steinenvorstadt 71, 4051 Basel, Switzerland",47.551983,7.5881159999999985,Pizzeria Molino,4.3,POINT (7.588115999999999 47.551983),POINT (7.588115999999999 47.551983)
126,"Elsässerstrasse 1, 4056 Basel, Switzerland",47.5670999,7.581165200000001,Da Gianni,4.4,POINT (7.581165200000001 47.5670999),POINT (7.581165200000001 47.5670999)
127,"Rheingasse 47, 4058 Basel, Switzerland",47.559253399999996,7.5933578,Gabri's Pasta,4.7,POINT (7.5933578 47.5592534),POINT (7.5933578 47.5592534)
128,"Auf der Lyss 14, 4051 Basel, Switzerland",47.556333,7.584128999999999,Trattoria aroma,4.5,POINT (7.584128999999999 47.556333),POINT (7.584128999999999 47.556333)
129,"9, Binningerstrasse, 4051 Basel, Switzerland",47.55058409999999,7.586446100000002,Osteria Little Italy,4.4,POINT (7.586446100000002 47.55058409999999),POINT (7.586446100000002 47.55058409999999)
130,"Untere Rebgasse 8, 4058 Basel, Switzerland",47.562312,7.592981,Vapiano Claraplatz,4.3,POINT (7.592981 47.562312),POINT (7.592981 47.562312)
131,"Rheingasse 10, 4058 Basel, Switzerland",47.560272,7.591646799999999,"Restaurant ""Zum Schmale Wurf""",4.1,POINT (7.591646799999999 47.560272),POINT (7.591646799999999 47.560272)
132,"Hammerstrasse 15, 4058 Basel, Switzerland",47.560295,7.597747999999998,Restaurant Pizzeria ROMA,4.0,POINT (7.597747999999998 47.560295),POINT (7.597747999999998 47.560295)
133,"Spalenvorstadt 9, 4051 Basel, Switzerland",47.557045,7.5833068999999975,Ristorante Bar Casanova Basel,4.5,POINT (7.583306899999998 47.557045),POINT (7.583306899999998 47.557045)
134,"Riehenring 79, 4058 Basel, Switzerland",47.564391,7.5983420000000015,Roma Messe Pizzeria Restaurant,3.6,POINT (7.598342000000001 47.564391),POINT (7.598342000000001 47.564391)
135,"Eisengasse 9, 4051 Basel, Switzerland",47.559287,7.5882957000000015,Spiga Ristorante,4.1,POINT (7.588295700000002 47.559287),POINT (7.588295700000002 47.559287)
136,"Untere Rebgasse 4, 4058 Basel, Switzerland",47.5621226,7.593233299999999,Detto Pronto AG,3.5,POINT (7.593233299999999 47.5621226),POINT (7.593233299999999 47.5621226)
137,"Sternengasse 19, 4051 Basel, Switzerland",47.551475,7.5927060000000015,Vapiano Basel,4.2,POINT (7.592706000000002 47.551475),POINT (7.592706000000002 47.551475)
138,"Spalenring 132, 4055 Basel, Switzerland",47.555516499999996,7.575384700000001,Restaurant Rossini-Murano,4.0,POINT (7.575384700000001 47.5555165),POINT (7.575384700000001 47.5555165)
139,"St. Johanns-Vorstadt 29, 4056 Basel, Switzerland",47.56371729999999,7.584069299999999,Restaurant zur Mägd,4.4,POINT (7.584069299999999 47.56371729999999),POINT (7.584069299999999 47.56371729999999)
140,"Sattelgasse 3, 4051 Basel, Switzerland",47.5580648,7.587173999999999,Trattoria Antichi Sapori GmbH,4.4,POINT (7.587173999999999 47.5580648),POINT (7.587173999999999 47.5580648)
141,"Fabrikstrasse 12, 4056 Basel, Switzerland",47.5737027,7.579353399999999,Osteria Dodici,4.6,POINT (7.579353399999999 47.5737027),POINT (7.579353399999999 47.5737027)
142,"Hutgasse 6, 4001 Basel, Switzerland",47.557668,7.5871819999999985,Ramazzotti,4.0,POINT (7.587181999999999 47.557668),POINT (7.587181999999999 47.557668)
143,"Theodorsgraben 42, 4058 Basel, Switzerland",47.558949,7.5989939999999985,Hotel Restaurant Resslirytti,4.4,POINT (7.598993999999998 47.558949),POINT (7.598993999999998 47.558949)
144,"Steinenvorstadt 1, 4051 Basel, Switzerland",47.5538351,7.5890743999999986,Ristorante La Sosta,3.9,POINT (7.589074399999999 47.5538351),POINT (7.589074399999999 47.5538351)
145,"Zürcherstrasse 146, 4052 Basel, Switzerland",47.555150899999994,7.6133807000000004,Steakhouse Albanbrücke,4.5,POINT (7.6133807 47.55515089999999),POINT (7.6133807 47.55515089999999)
146,"Clarastrasse 1, 4058 Basel, Switzerland",47.5620921,7.5947508999999975,Restaurant Holzschopf,3.8,POINT (7.594750899999998 47.5620921),POINT (7.594750899999998 47.5620921)
147,"Weidengasse 19, 4052 Basel, Switzerland",47.55381329999999,7.605564599999999,Restaurant Cibo Mediterraneo,4.5,POINT (7.605564599999999 47.55381329999999),POINT (7.605564599999999 47.55381329999999)
148,"Elisabethenstrasse 33, 4051 Basel, Switzerland",47.5514142,7.5912378,Grace Restaurant & Lounge Basel,4.0,POINT (7.5912378 47.5514142),POINT (7.5912378 47.5514142)
149,"Steinenring 60, 4051 Basel, Switzerland",47.5504792,7.580737599999999,La Vela,4.4,POINT (7.580737599999999 47.5504792),POINT (7.580737599999999 47.5504792)
150,"Vogesenstrasse 83, 4056 Basel, Switzerland",47.5673148,7.576624199999999,Mel's Bar & Diner,4.3,POINT (7.576624199999999 47.5673148),POINT (7.576624199999999 47.5673148)
151,"Untere Rebgasse 18, 4058 Basel, Switzerland",47.562699200000004,7.592451000000001,Café Restaurant Damas,4.0,POINT (7.592451000000001 47.5626992),POINT (7.592451000000001 47.5626992)
152,"Binningerstrasse 145, 4123 Allschwil, Switzerland",47.5471113,7.5524789000000006,Restaurant Pizzeria Sonneck,4.3,POINT (7.552478900000001 47.5471113),POINT (7.552478900000001 47.5471113)
153,"Streitgasse 20, 4051 Basel, Switzerland",47.555214,7.5900269,Centro am Barfi,4.1,POINT (7.5900269 47.555214),POINT (7.5900269 47.555214)
154,"Steinentorstrasse 25, 4051 Basel, Switzerland",47.551318200000004,7.588592199999999,Filini Bar & Restaurant,4.2,POINT (7.588592199999999 47.5513182),POINT (7.588592199999999 47.5513182)
155,"Holzmattenweg 13, 79576 Weil am Rhein, Germany",47.58515,7.607469999999999,"Pizzeria Mooshüsli, Café - Restaurant",3.8,POINT (7.607469999999999 47.58515),POINT (7.607469999999999 47.58515)
156,"Basler Str. 6, 79639 Grenzach-Wyhlen, Germany",47.552974600000006,7.6604769,Drei Könige Italienisches Restaurant,4.2,POINT (7.6604769 47.55297460000001),POINT (7.6604769 47.55297460000001)
157,"Horburgstrasse 74, 4057 Basel, Switzerland",47.57053699999999,7.594928999999999,Ristorante Mamma Brunella,4.6,POINT (7.594928999999999 47.57053699999999),POINT (7.594928999999999 47.57053699999999)
158,"Schützengraben 62, 4051 Basel, Switzerland",47.557605,7.581409,Restaurant Apulia,4.4,POINT (7.581409 47.557605),POINT (7.581409 47.557605)
159,"Aeschenpl. 2, 4052 Basel, Switzerland",47.55129280000001,7.595841900000001,Pattini Tipico Italiano Street Food,5.0,POINT (7.595841900000001 47.55129280000001),POINT (7.595841900000001 47.55129280000001)
160,"Güterstrasse 138, 4053 Basel, Switzerland",47.5447321,7.589181599999999,VITO,4.6,POINT (7.589181599999999 47.5447321),POINT (7.589181599999999 47.5447321)
161,"Barfüsserpl. 16, 4051 Basel, Switzerland",47.55469620000001,7.588694099999999,Restaurant Bodega zum Strauss,4.5,POINT (7.588694099999999 47.55469620000001),POINT (7.588694099999999 47.55469620000001)
162,"Güterstrasse 183, 4053 Basel, Switzerland",47.5435566,7.592878400000001,5 Signori,4.4,POINT (7.592878400000001 47.5435566),POINT (7.592878400000001 47.5435566)
163,"Offenburgerstrasse 32, 4057 Basel, Switzerland",47.569101,7.588471600000001,Trattoria da Checco e Gio,5.0,POINT (7.588471600000001 47.569101),POINT (7.588471600000001 47.569101)
164,"Allschwilerstrasse 19, 4055 Basel, Switzerland",47.555823700000005,7.574149899999999,Brause Grill,4.6,POINT (7.574149899999999 47.5558237),POINT (7.574149899999999 47.5558237)
165,"St. Jakobs-Strasse 116, 4132 Muttenz, Switzerland",47.5326619,7.6311073,Pizzeria Bianca,4.2,POINT (7.6311073 47.5326619),POINT (7.6311073 47.5326619)
166,"Unterer Rheinweg 28, 4058 Basel, Switzerland",47.562727200000005,7.58878,Italienische Glace,4.5,POINT (7.58878 47.5627272),POINT (7.58878 47.5627272)
167,"Elsässerstrasse 49, 4056 Basel, Switzerland",47.5688063,7.579525599999998,Restaurant Vogesenstube,4.4,POINT (7.579525599999998 47.5688063),POINT (7.579525599999998 47.5688063)
168,"47 Reinacherstrasse Münchenstein, 4142, Switzerland",47.52487259999999,7.604690700000001,Pizza Melsa Münchenstein,4.4,POINT (7.604690700000001 47.52487259999999),POINT (7.604690700000001 47.52487259999999)
169,"Bahnhofstrasse 26, 4106 Therwil, Switzerland",47.499066,7.555877000000001,Restaurant Toscana,4.3,POINT (7.555877000000001 47.499066),POINT (7.555877000000001 47.499066)
170,"Hauptstraße 160, 79576 Weil am Rhein, Germany",47.59401,7.626419999999999,Galileo`s Restaurant,4.2,POINT (7.626419999999999 47.59401),POINT (7.626419999999999 47.59401)
171,"43 Hauptstrasse Oberwil, 4104, Switzerland",47.5138213,7.555961699999999,Carbone Caffè-Bar e Locanda,4.6,POINT (7.555961699999999 47.5138213),POINT (7.555961699999999 47.5138213)
172,"4051, Gerbergasse 78, 4001 Basel, Switzerland",47.55507739999999,7.588722299999999,PiadinA Bar,4.8,POINT (7.588722299999999 47.55507739999999),POINT (7.588722299999999 47.55507739999999)
173,"Lutzertstrasse 38, 4132 Muttenz, Switzerland",47.533930600000005,7.6328997,Restaurant Muttenz,4.3,POINT (7.6328997 47.53393060000001),POINT (7.6328997 47.53393060000001)
174,"Mühlemattstrasse 9, 4104 Oberwil, Switzerland",47.5102874,7.5556560999999975,"Italian Place Restaurant & Take Away / Pizza, Hausgemachte Lasagne, Arancini, Piadina",4.8,POINT (7.555656099999998 47.5102874),POINT (7.555656099999998 47.5102874)
175,"St. Jakobs-Strasse 106, 4132 Muttenz, Switzerland",47.532113200000005,7.6336564,Restaurant Pizzeria RENNBAHN Muttenz - Italienische & CH-Küche Fleisch Fisch Hauslieferdienst,4.1,POINT (7.6336564 47.5321132),POINT (7.6336564 47.5321132)
176,"Hardstrasse 2, 4127 Birsfelden, Switzerland",47.5523679,7.623763500000001,Restaurant Pizzeria Feldschlösschen (Feldschlössli),4.0,POINT (7.623763500000001 47.5523679),POINT (7.623763500000001 47.5523679)
177,"Baslerstrasse 302, 4123 Allschwil, Switzerland",47.55735,7.5598579999999975,Ristorazione zur Harmonie,5.0,POINT (7.559857999999998 47.55735),POINT (7.559857999999998 47.55735)
178,"Spalenvorstadt 34, 4051 Basel, Switzerland",47.557839799999996,7.5819670000000015,Sapori Del Sud,4.8,POINT (7.581967000000001 47.5578398),POINT (7.581967000000001 47.5578398)
179,"272 Hauptstraße, 79576 Weil am Rhein, Germany",47.592666799999996,7.6154921999999985,Pizzeria Da Luca,3.6,POINT (7.615492199999998 47.5926668),POINT (7.615492199999998 47.5926668)
180,"Effingerstrasse 14, 3011 Bern, Switzerland",46.9459515,7.435350099999999,Da Carlo Ristorante & Pizzeria,4.4,POINT (7.435350099999999 46.9459515),POINT (7.435350099999999 46.9459515)
181,"Murtenstrasse 2, 3008 Bern, Switzerland",46.948311700000005,7.4283342999999995,Ristorante Azzurro,4.5,POINT (7.4283343 46.9483117),POINT (7.4283343 46.9483117)
182,"Gerechtigkeitsgasse 7, 3011 Bern, Switzerland",46.9485071,7.4554408999999975,Verdi,4.0,POINT (7.455440899999997 46.9485071),POINT (7.455440899999997 46.9485071)
183,"Waisenhauspl. 13, 3011 Bern, Switzerland",46.948668,7.443987,"Pizzeria Ristorante Molino, Thurm",4.2,POINT (7.443987 46.948668),POINT (7.443987 46.948668)
184,"Zeughausgasse 28, 3011 Bern, Switzerland",46.9492746,7.444596099999999,Ristorante Luce,4.4,POINT (7.444596099999999 46.9492746),POINT (7.444596099999999 46.9492746)
185,"Hotelgasse 10, 3011 Bern, Switzerland",46.94756539999999,7.447945399999999,Lorenzini,4.3,POINT (7.447945399999999 46.94756539999999),POINT (7.447945399999999 46.94756539999999)
186,"Bühlstrasse 57, 3012 Bern, Switzerland",46.95266090000001,7.4322314999999985,Casa d'Italia,4.2,POINT (7.432231499999999 46.95266090000001),POINT (7.432231499999999 46.95266090000001)
187,"Kornhauspl. 7, 3011 Bern, Switzerland",46.94833,7.447761599999999,Spaghetti Factory Chindlifrässer,4.0,POINT (7.447761599999999 46.94833),POINT (7.447761599999999 46.94833)
188,"Thunstrasse 93, 3006 Bern, Switzerland",46.941275700000006,7.4627724,LOCANDA 93,4.2,POINT (7.4627724 46.94127570000001),POINT (7.4627724 46.94127570000001)
189,"Spitalgasse 2, 3011 Bern, Switzerland",46.9483708,7.443432400000001,Ristorante Da Vinci,3.9,POINT (7.443432400000001 46.9483708),POINT (7.443432400000001 46.9483708)
190,"Neubrückstrasse 70, 3012 Bern, Switzerland",46.95710099999999,7.437739000000001,Ristorante Pizzeria La Vita / da Sebastiano,4.2,POINT (7.437739000000001 46.95710099999999),POINT (7.437739000000001 46.95710099999999)
191,"Bubenbergpl. 8, 3011 Bern, Switzerland",46.947584,7.438199000000001,Cavallo Star,4.0,POINT (7.438199000000001 46.947584),POINT (7.438199000000001 46.947584)
192,"Turnweg 18, 3013 Bern, Switzerland",46.958405600000006,7.447750099999999,Restaurant Römer,3.8,POINT (7.447750099999999 46.95840560000001),POINT (7.447750099999999 46.95840560000001)
193,"Kochergasse 1, 3011 Bern, Switzerland",46.9466949,7.4476773000000005,Restaurant Pizzeria Da Keli,4.2,POINT (7.4476773 46.9466949),POINT (7.4476773 46.9466949)
194,"Waisenhauspl. 28, 3011 Bern, Switzerland",46.949661,7.4439790000000015,Il Grissino,4.2,POINT (7.443979000000001 46.949661),POINT (7.443979000000001 46.949661)
195,"Bärenpl. 7, 3011 Bern, Switzerland",46.9479438,7.443939899999998,Santa Lucia Bern,4.1,POINT (7.443939899999998 46.9479438),POINT (7.443939899999998 46.9479438)
196,"Bühlstrasse 5, 3012 Bern, Switzerland",46.9491631,7.428567300000001,Ristorante Ambiente Holzofenpizzeria,4.3,POINT (7.428567300000001 46.9491631),POINT (7.428567300000001 46.9491631)
197,"Freiburgstrasse 68, 3008 Bern, Switzerland",46.94624899999999,7.417802,Ristorante Pizzeria Settebello,4.6,POINT (7.417802 46.94624899999999),POINT (7.417802 46.94624899999999)
198,"Belpstrasse 65, 3003 Bern, Switzerland",46.9420333,7.4314482,"Pizzeria Eigerplatz ""Da Nino""",4.7,POINT (7.4314482 46.9420333),POINT (7.4314482 46.9420333)
199,"PostParc Hochhaus, Bogenschützenstrasse 9, 3008 Bern, Switzerland",46.9481435,7.437897200000001,Vapiano Bern,4.1,POINT (7.437897200000001 46.9481435),POINT (7.437897200000001 46.9481435)
200,"Riedbachstrasse 98, 3027 Bern, Switzerland",46.9441375,7.3734284999999975,SPIGA Ristorante,3.9,POINT (7.373428499999997 46.9441375),POINT (7.373428499999997 46.9441375)
201,"Länggassstrasse 44, 3012 Bern, Switzerland",46.954228,7.431122999999999,Ristorante & Bar Mappamondo,4.0,POINT (7.431122999999999 46.954228),POINT (7.431122999999999 46.954228)
202,"Bärenpl. 9, 3011 Bern, Switzerland",46.94782120000001,7.4439537,Plattform Restaurants,3.6,POINT (7.4439537 46.94782120000001),POINT (7.4439537 46.94782120000001)
203,"Landoltstrasse 1, 3007 Bern, Switzerland",46.937290000000004,7.439408999999999,Pizzaiolo Pizza-Kurier,3.6,POINT (7.439408999999999 46.93729),POINT (7.439408999999999 46.93729)
204,"Papiermühlestrasse 71, 3014 Bern, Switzerland",46.9622756,7.4652228,Eleven,4.0,POINT (7.4652228 46.9622756),POINT (7.4652228 46.9622756)
205,"10, Amthausgasse, 3011 Bern, Switzerland",46.94741750000001,7.446630299999999,Ristorante Pizzeria Da Bucolo,4.4,POINT (7.446630299999999 46.94741750000001),POINT (7.446630299999999 46.94741750000001)
206,"Schwarztorstrasse 47, 3007 Bern, Switzerland",46.9441753,7.432659200000001,Pizzeria La Stella,3.6,POINT (7.432659200000001 46.9441753),POINT (7.432659200000001 46.9441753)
207,"Breitenrainpl. 29, 3014 Bern, Switzerland",46.958287,7.454621,Restaurant Pizzeria Tavola Calda,4.4,POINT (7.454621 46.958287),POINT (7.454621 46.958287)
208,"Belpstrasse 34, 3007 Bern, Switzerland",46.9434276,7.431776500000002,Ristorante Ottimo,4.7,POINT (7.431776500000002 46.9434276),POINT (7.431776500000002 46.9434276)
209,"Laupenstrasse 17, 3008 Bern, Switzerland",46.947173299999996,7.434979800000002,Tre Fratelli,4.2,POINT (7.434979800000002 46.9471733),POINT (7.434979800000002 46.9471733)
210,"Quartiergasse 3, 3013 Bern, Switzerland",46.958047799999996,7.4465038,La Carbonara,4.2,POINT (7.4465038 46.9580478),POINT (7.4465038 46.9580478)
211,"Bärenpl. 7, 3011 Bern, Switzerland",46.947935799999996,7.443685400000001,Ristorante La Gioia,3.5,POINT (7.443685400000001 46.9479358),POINT (7.443685400000001 46.9479358)
212,"Schermenweg 179, 3072 Ostermundigen, Switzerland",46.957562599999996,7.480958999999999,L'Osteria d'Abruzzo,4.4,POINT (7.480958999999999 46.9575626),POINT (7.480958999999999 46.9575626)
213,"Länggasstrasse 19, 3012 Bern, Switzerland",46.9588575,7.427328599999999,Pizza Subito da Giovanni Iacono,0.0,POINT (7.427328599999999 46.9588575),POINT (7.427328599999999 46.9588575)
214,"Dorfstrasse 11, 3073 Gümligen, Switzerland",46.9362643,7.503326800000001,La Tana Del Lupo,4.2,POINT (7.503326800000001 46.9362643),POINT (7.503326800000001 46.9362643)
215,"Bümplizstrasse 12, 3027 Bern, Switzerland",46.948744899999994,7.396506800000001,Tre Re,4.2,POINT (7.396506800000001 46.94874489999999),POINT (7.396506800000001 46.94874489999999)
216,"Kappelenbrücke 2 B, 3032 Hinterkappelen, Switzerland",46.9658945,7.379587400000001,Ristorante & Bar Lago,4.0,POINT (7.379587400000001 46.9658945),POINT (7.379587400000001 46.9658945)
217,"Herrengasse 24, 3011 Bern, Switzerland",46.94715799999999,7.4496660000000015,De Fusco Ristorante Enoteca,0.0,POINT (7.449666000000001 46.94715799999999),POINT (7.449666000000001 46.94715799999999)
218,"Scheibenstrasse 25, 3014 Bern, Switzerland",46.9608867,7.453334299999999,Restaurant Dolce Vita,4.3,POINT (7.453334299999999 46.9608867),POINT (7.453334299999999 46.9608867)
219,"Breitenrainpl. 26, 3014 Bern, Switzerland",46.9586107,7.455054799999999,Grotto Ticino,4.1,POINT (7.455054799999999 46.9586107),POINT (7.455054799999999 46.9586107)
220,"Rathausgasse 23, 3011 Bern, Switzerland",46.94847,7.450834599999999,Lo stuzzichino,4.4,POINT (7.450834599999999 46.94847),POINT (7.450834599999999 46.94847)
221,"Freiburgstrasse 169, 3008 Bern, Switzerland",46.942476299999996,7.405082199999999,Trattoria da Walter,4.4,POINT (7.405082199999999 46.9424763),POINT (7.405082199999999 46.9424763)
222,"Aarbergergasse 6, 3011 Bern, Switzerland",46.949481799999994,7.4437687000000015,Rialto,4.2,POINT (7.443768700000001 46.94948179999999),POINT (7.443768700000001 46.94948179999999)
223,"Talgut-Zentrum 34, 3063 Ittigen, Switzerland",46.974511299999996,7.4815245,Arcadia Taberna Romana,4.4,POINT (7.4815245 46.9745113),POINT (7.4815245 46.9745113)
224,"Kursaal Bern, Kornhausstrasse 3, 3013 Bern, Switzerland",46.95325709999999,7.448741499999999,Meridiano,4.7,POINT (7.448741499999999 46.95325709999999),POINT (7.448741499999999 46.95325709999999)
225,"Kranichweg 6, 3074 Muri bei Bern, Switzerland",46.9349883,7.4898745999999985,Restaurant Pizzeria Thoracker,4.3,POINT (7.489874599999998 46.9349883),POINT (7.489874599999998 46.9349883)
226,"Aarbergergasse 35, 3011 Bern, Switzerland",46.9495784,7.442552099999999,Divino,3.5,POINT (7.442552099999999 46.9495784),POINT (7.442552099999999 46.9495784)
227,"Bernstrasse 79, 3018 Bern, Switzerland",46.9409268,7.3931377000000005,Osteria da Santo GmbH,4.4,POINT (7.3931377 46.9409268),POINT (7.3931377 46.9409268)
228,"Quellenweg 1, 3084 Köniz, Switzerland",46.927766399999996,7.453168199999999,Pizzeria da Antonio Wabern Bern Pizza und take away,4.5,POINT (7.453168199999999 46.9277664),POINT (7.453168199999999 46.9277664)
229,"Hallerstrasse 21, 3012 Bern, Switzerland",46.953254,7.436063999999999,Pizzeria Garibaldi,3.8,POINT (7.436063999999999 46.953254),POINT (7.436063999999999 46.953254)
230,"Gerechtigkeitsgasse 12, 3011 Bern, Switzerland",46.948724,7.455575000000001,Treff,4.0,POINT (7.455575000000001 46.948724),POINT (7.455575000000001 46.948724)
231,"Weingartstrasse 32, 3014 Bern, Switzerland",46.962266,7.455094,Ristorante Pizzeria Calabrisella,4.2,POINT (7.455094 46.962266),POINT (7.455094 46.962266)
232,"Kornhausstrasse 3, 3013 Bern, Switzerland",46.95343,7.448591500000001,Restaurant Giardino,4.0,POINT (7.448591500000001 46.95343),POINT (7.448591500000001 46.95343)
233,"Bolligenstrasse 52, 3006 Bern, Switzerland",46.9558221,7.4673878,Ristorante Bella Vita,4.4,POINT (7.4673878 46.9558221),POINT (7.4673878 46.9558221)
234,"Rue Marterey 9, 1005 Lausanne, Switzerland",46.52078729999999,6.6384200999999985,Restaurant L'Antica Trattoria,4.3,POINT (6.638420099999998 46.52078729999999),POINT (6.638420099999998 46.52078729999999)
235,"Avenue de la Gare 20, 1003 Lausanne, Switzerland",46.5171026,6.633398700000001,Restaurant La Bruschetta,4.3,POINT (6.633398700000001 46.5171026),POINT (6.633398700000001 46.5171026)
236,"Rue Saint-Pierre 3, 1003 Lausanne, Switzerland",46.5196476,6.6370863,Luigia,4.2,POINT (6.6370863 46.5196476),POINT (6.6370863 46.5196476)
237,"Avenue d'Ouchy 38, 1006 Lausanne, Switzerland",46.511826,6.629179,Piazza San marco,4.4,POINT (6.629179 46.511826),POINT (6.629179 46.511826)
238,"Avenue d'Ouchy 14, 1006 Lausanne, Switzerland",46.5136042,6.630593699999999,Restaurant Osteria Balsamico,4.2,POINT (6.630593699999999 46.5136042),POINT (6.630593699999999 46.5136042)
239,"Avenue de Tivoli 60, 1007 Lausanne, Switzerland",46.5212116,6.6174664000000005,Zafferano,4.7,POINT (6.617466400000001 46.5212116),POINT (6.617466400000001 46.5212116)
240,"Chemin de Couvaloup 13, 1005 Lausanne, Switzerland",46.5250375,6.6363107999999995,Ulivo,4.4,POINT (6.6363108 46.5250375),POINT (6.6363108 46.5250375)
241,"Avenue d'Echallens 72, 1004 Lausanne, Switzerland",46.528149000000006,6.616410000000001,Ristorante St Paul,4.7,POINT (6.616410000000001 46.52814900000001),POINT (6.616410000000001 46.52814900000001)
242,"Place du Port 11, 1006 Lausanne, Switzerland",46.50716129999999,6.628313499999999,L´Accademia,4.3,POINT (6.628313499999999 46.50716129999999),POINT (6.628313499999999 46.50716129999999)
243,"Rue Marterey 25, 1005 Lausanne, Switzerland",46.5213123,6.639653200000001,Restaurant pizzeria Bravissimo,4.4,POINT (6.639653200000001 46.5213123),POINT (6.639653200000001 46.5213123)
244,"Rue de Bourg 28, 1003 Lausanne, Switzerland",46.519899,6.636143,Chez Mario,4.3,POINT (6.636143 46.519899),POINT (6.636143 46.519899)
245,"Avenue Mon-Repos 14, 1005 Lausanne, Switzerland",46.518766,6.640295,Restaurant Pizzeria Gigio’s Lausanne,4.0,POINT (6.640295 46.518766),POINT (6.640295 46.518766)
246,"Place de la Gare 4, 1003 Lausanne, Switzerland",46.5175977,6.6294476,Vapiano,4.0,POINT (6.6294476 46.5175977),POINT (6.6294476 46.5175977)
247,"Grand-Rue 22, 1009 Pully, Switzerland",46.510224900000004,6.6609856,La Stella,4.1,POINT (6.6609856 46.5102249),POINT (6.6609856 46.5102249)
248,"Rue de la Barre 5, 1003 Lausanne, Switzerland",46.5257225,6.635713699999998,Caffe Bellini,3.9,POINT (6.635713699999998 46.5257225),POINT (6.635713699999998 46.5257225)
249,"Avenue de Chailly 13, 1012 Lausanne, Switzerland",46.525515000000006,6.652269,Au charbon,4.0,POINT (6.652269 46.52551500000001),POINT (6.652269 46.52551500000001)
250,"Chemin des Clochetons 41, 1004 Lausanne, Switzerland",46.526337,6.6169981,cucina41,4.2,POINT (6.6169981 46.526337),POINT (6.6169981 46.526337)
251,"Avenue des Deux-Ponts 13, 1009 Pully, Switzerland",46.5126672,6.645546400000001,Restaurant - Pizzeria Grotto 2,4.2,POINT (6.645546400000001 46.5126672),POINT (6.645546400000001 46.5126672)
252,"Avenue de la Gare 52, 1003 Lausanne, Switzerland",46.5175303,6.6305866999999985,Bella Vita,3.6,POINT (6.630586699999999 46.5175303),POINT (6.630586699999999 46.5175303)
253,"Via Valentino, 12, 1004 Lausanne, Switzerland",46.5244061,6.632040900000002,I Giardini d'Italia,3.2,POINT (6.632040900000002 46.5244061),POINT (6.632040900000002 46.5244061)
254,"Avenue du Théâtre 12, 1005 Lausanne, Switzerland",46.51804,6.636889999999998,Restaurant du Théâtre,4.3,POINT (6.636889999999998 46.51804),POINT (6.636889999999998 46.51804)
255,"Place de la Gare 12, 1003 Lausanne, Switzerland",46.5178941,6.6281427,Le Ticino,4.2,POINT (6.6281427 46.5178941),POINT (6.6281427 46.5178941)
256,"Voie du Chariot 6, 1003 Lausanne, Switzerland",46.52097879999999,6.629244900000001,Leonardo Bar and Food,4.1,POINT (6.629244900000001 46.52097879999999),POINT (6.629244900000001 46.52097879999999)
257,"Avenue Emile-Henri-Jaques-Dalcroze 9, 1007 Lausanne, Switzerland",46.5115408,6.6095273,Watergate,3.6,POINT (6.6095273 46.5115408),POINT (6.6095273 46.5115408)
258,"Rue de Lausanne 23, 1020 Renens, Switzerland",46.53686079999999,6.582838900000001,Trattoria du Commerce,4.0,POINT (6.582838900000001 46.53686079999999),POINT (6.582838900000001 46.53686079999999)
259,"Rlle des Tanneurs 1003, 1003 Lausanne, Switzerland",46.520672999999995,6.635789,Perbacco,4.4,POINT (6.635789 46.520673),POINT (6.635789 46.520673)
260,"Chemin des Cèdres 2B, 1004 Lausanne, Switzerland",46.5245867,6.6267980999999985,Milano's Pizza,4.2,POINT (6.626798099999998 46.5245867),POINT (6.626798099999998 46.5245867)
261,"Rue Caroline 2, 1003 Lausanne, Switzerland",46.5202913,6.6372111999999985,Pizzéria Da Carlo S.A.,4.1,POINT (6.637211199999999 46.5202913),POINT (6.637211199999999 46.5202913)
262,"Avenue de la Sallaz 31, 1010 Lausanne, Switzerland",46.5314723,6.6459734,Restaurant L'Amica,3.6,POINT (6.6459734 46.5314723),POINT (6.6459734 46.5314723)
263,"Chemin du Pré-de-la-Tour 10, 1009 Pully, Switzerland",46.511144099999996,6.6609408,Time Out Pully,4.0,POINT (6.6609408 46.5111441),POINT (6.6609408 46.5111441)
264,"Rue Cité-Devant 6, 1005 Lausanne, Switzerland",46.52328,6.6353341,Il ghiotto,4.3,POINT (6.6353341 46.52328),POINT (6.6353341 46.52328)
265,"Chemin des Falaises 1, 1005 Lausanne, Switzerland",46.52694899999999,6.640897,Restaurant-pizzeria Les Falaises,3.6,POINT (6.640897 46.52694899999999),POINT (6.640897 46.52694899999999)
266,"Avenue du Chablais 53, 1007 Lausanne, Switzerland",46.523232799999995,6.601045200000001,La Poesia Restaurant,4.5,POINT (6.601045200000001 46.5232328),POINT (6.601045200000001 46.5232328)
267,"Rue Dr César-Roux 5, 1005 Lausanne, Switzerland",46.5251589,6.637623700000001,Ristorante Amici,4.6,POINT (6.637623700000001 46.5251589),POINT (6.637623700000001 46.5251589)
268,"Avenue d'Ouchy 3, 1006 Lausanne, Switzerland",46.5165321,6.6336550999999995,Pasta e Sfizi,4.3,POINT (6.633655099999999 46.5165321),POINT (6.633655099999999 46.5165321)
269,"Avenue des Deux-Ponts 13, 1009 Pully, Switzerland",46.5127122,6.6454796,restaurant italien,0.0,POINT (6.6454796 46.5127122),POINT (6.6454796 46.5127122)
270,"Avenue du Temple 2, 1020 Renens, Switzerland",46.535988700000004,6.5876891,Restaurant La Rose Rouge,4.1,POINT (6.5876891 46.5359887),POINT (6.5876891 46.5359887)
271,"Rue du Bugnon 46, 1005 Lausanne, Switzerland",46.52560829999999,6.642587199999999,Chez Sophie,4.0,POINT (6.642587199999999 46.52560829999999),POINT (6.642587199999999 46.52560829999999)
272,"Avenue de la Poste 22, 1020 Renens, Switzerland",46.539233200000005,6.5836878,La Scarpetta Pizzeria,3.9,POINT (6.5836878 46.53923320000001),POINT (6.5836878 46.53923320000001)
273,"Boulevard de Grancy 32, 1006 Lausanne, Switzerland",46.5158806,6.6280049,Café de L 'Avenir,4.2,POINT (6.6280049 46.5158806),POINT (6.6280049 46.5158806)
274,"Route d'Oron 4, 1068 Pully, Switzerland",46.534065399999996,6.683497900000001,Il Vesuvio,4.2,POINT (6.683497900000001 46.5340654),POINT (6.683497900000001 46.5340654)
275,"Boulevard de Grancy 54, 1006 Lausanne, Switzerland",46.5165131,6.6258517999999995,le Milan,4.3,POINT (6.6258518 46.5165131),POINT (6.6258518 46.5165131)
276,"Route du Châtelard 56, 1018 Lausanne, Switzerland",46.54440049999999,6.6242166,Pizzeria Napoli,3.9,POINT (6.6242166 46.54440049999999),POINT (6.6242166 46.54440049999999)
277,"Avenue de Tivoli 68, 1007 Lausanne, Switzerland",46.52108579999999,6.616756499999998,Restaurant La Molisana,4.2,POINT (6.616756499999998 46.52108579999999),POINT (6.616756499999998 46.52108579999999)
278,"Marktgasse 44, 8400 Winterthur, Switzerland",47.4997842,8.7287496,Cantinetta Bindella,4.3,POINT (8.7287496 47.4997842),POINT (8.7287496 47.4997842)
279,"Stadthausstrasse 71, 8400 Winterthur, Switzerland",47.500134700000004,8.729137,Pizzeria La Pergola Restaurante,4.5,POINT (8.729137 47.5001347),POINT (8.729137 47.5001347)
280,"Wartstrasse 24, 8400 Winterthur, Switzerland",47.501301,8.721197,Ristorante Sottovoce,4.4,POINT (8.721197 47.501301),POINT (8.721197 47.501301)
281,"Metzggasse 11, 8400 Winterthur, Switzerland",47.4986905,8.7276081,Pulcinella,4.5,POINT (8.727608099999999 47.4986905),POINT (8.727608099999999 47.4986905)
282,"Archstrasse 12, 8400 Winterthur, Switzerland",47.4978722,8.7235248,Trattoria La Torre,4.2,POINT (8.7235248 47.4978722),POINT (8.7235248 47.4978722)
283,"Wülflingerstrasse 30, 8400 Winterthur, Switzerland",47.505073700000004,8.718438800000001,Buon Gusto Pizzeria & Pizzakurier,4.5,POINT (8.718438800000001 47.5050737),POINT (8.718438800000001 47.5050737)
284,"Steinberggasse 24, 8400 Winterthur, Switzerland",47.498399799999994,8.7288301,Insieme,4.4,POINT (8.7288301 47.49839979999999),POINT (8.7288301 47.49839979999999)
285,"Oberer Graben 26, 8400 Winterthur, Switzerland",47.4991699,8.7314026,Spaghetti Factory Frohsinn,3.9,POINT (8.731402599999999 47.4991699),POINT (8.731402599999999 47.4991699)
286,"Klosterstrasse 50, 8406 Winterthur, Switzerland",47.4879855,8.708968800000001,Ristorante Castello Winterthur,4.4,POINT (8.708968800000001 47.4879855),POINT (8.708968800000001 47.4879855)
287,"Bahnhofpl. 12, 8400 Winterthur, Switzerland",47.5007963,8.725097300000002,Bindella,4.0,POINT (8.725097300000002 47.5007963),POINT (8.725097300000002 47.5007963)
288,"Marktgasse 45, 8400 Winterthur, Switzerland",47.499424,8.727779,Pizzeria Ristorante Molino,4.2,POINT (8.727779 47.499424),POINT (8.727779 47.499424)
289,"Brunngasse 35, 8400 Winterthur, Switzerland",47.50716370000001,8.725714199999999,San Remo,4.1,POINT (8.725714199999999 47.50716370000001),POINT (8.725714199999999 47.50716370000001)
290,"Agnesstrasse 42, 8406 Winterthur, Switzerland",47.4917338,8.710849999999999,Pizzeria Cardinal,4.6,POINT (8.710849999999999 47.4917338),POINT (8.710849999999999 47.4917338)
291,"Ida-Sträuli-Strasse 95, 8404 Winterthur, Switzerland",47.5044802,8.763749599999999,Gerrys Bar,4.5,POINT (8.763749599999999 47.5044802),POINT (8.763749599999999 47.5044802)
292,"Tössfeldstrasse 30, 8406 Winterthur, Switzerland",47.49176749999999,8.7137048,Ristorante Caruso,4.6,POINT (8.7137048 47.49176749999999),POINT (8.7137048 47.49176749999999)
293,"Stadthausstrasse 12, 8400 Winterthur, Switzerland",47.500224200000005,8.726596500000001,Villa Duchessa,4.7,POINT (8.726596500000001 47.50022420000001),POINT (8.726596500000001 47.50022420000001)
294,"Agnesstrasse 5, 8406 Winterthur, Switzerland",47.49413079999999,8.714543899999999,Pizzeria Schwanen,4.3,POINT (8.714543899999999 47.49413079999999),POINT (8.714543899999999 47.49413079999999)
295,"Stadthausstrasse 121, 8400 Winterthur, Switzerland",47.4997584,8.726168399999999,Locanda Trivisano,4.6,POINT (8.726168399999999 47.4997584),POINT (8.726168399999999 47.4997584)
296,"Schaffhauserstrasse 56, 8400 Winterthur, Switzerland",47.51167330000001,8.7216829,Cherry Tomate,4.1,POINT (8.721682899999999 47.51167330000001),POINT (8.721682899999999 47.51167330000001)
297,"Industriestr 8, 8404 Winterthur, Switzerland",47.496185700000005,8.749579899999999,Angolo Pizza & Pasta,3.0,POINT (8.749579899999999 47.49618570000001),POINT (8.749579899999999 47.49618570000001)
298,"Scheideggstrasse 10, 8400 Winterthur, Switzerland",47.4917256,8.7501644,Restaurant Pizzeria Gutschick,4.3,POINT (8.750164399999999 47.4917256),POINT (8.750164399999999 47.4917256)
299,"Scheideggstrasse 6, 8400 Winterthur, Switzerland",47.49144219999999,8.749874499999999,Gianni's Pizza-Kurier Winterthur,4.5,POINT (8.749874499999999 47.49144219999999),POINT (8.749874499999999 47.49144219999999)
300,"Sonnenblickstrasse 1, 8404 Winterthur, Switzerland",47.5148229,8.7591745,Euro Pizza,4.7,POINT (8.7591745 47.5148229),POINT (8.7591745 47.5148229)
301,"Steinberggasse 51, 8400 Winterthur, Switzerland",47.498045,8.727813000000001,Don Camillo,4.5,POINT (8.727813000000001 47.498045),POINT (8.727813000000001 47.498045)
302,"Tösstalstrasse 244, 8405 Winterthur, Switzerland",47.48411670000001,8.7596727,Pizzeria Sonne,4.0,POINT (8.759672699999999 47.48411670000001),POINT (8.759672699999999 47.48411670000001)
303,"St. Gallerstrasse 35, 8400 Winterthur, Switzerland",47.49830660000001,8.7371844,dieci Pizzakurier Winterthur,4.2,POINT (8.7371844 47.49830660000001),POINT (8.7371844 47.49830660000001)
304,"Fluhmattstrasse 48, 6004 Luzern, Switzerland",47.059969,8.308415,Casa Tolone Ristorante - Vinoteca,4.5,POINT (8.308415 47.059969),POINT (8.308415 47.059969)
305,"Pilatusstrasse 29, 6003 Luzern, Switzerland",47.048081200000006,8.3056547,La Cucina,4.5,POINT (8.3056547 47.04808120000001),POINT (8.3056547 47.04808120000001)
306,"Rütligasse 2, 6003 Luzern, Switzerland",47.0502862,8.3022034,il Cortile,4.6,POINT (8.3022034 47.0502862),POINT (8.3022034 47.0502862)
307,"Waldstätterstrasse 25, 6003 Luzern, Switzerland",47.0468412,8.3087841,La Perla,4.3,POINT (8.3087841 47.0468412),POINT (8.3087841 47.0468412)
308,"Töpferstrasse 10, 6004 Luzern, Switzerland",47.05532909999999,8.3102362,Barbatti,4.2,POINT (8.3102362 47.05532909999999),POINT (8.3102362 47.05532909999999)
309,"Mühlenpl. 12, 6004 Luzern, Switzerland",47.052149799999995,8.3033738,Mamma Leone,4.1,POINT (8.303373799999999 47.0521498),POINT (8.303373799999999 47.0521498)
310,"St. KarliQuai 9, 6004 Luzern, Switzerland",47.0526474,8.3011647,Modomio,4.4,POINT (8.301164699999999 47.0526474),POINT (8.301164699999999 47.0526474)
311,"Rütligasse 5, 6003 Luzern, Switzerland",47.050057,8.301962399999999,Toscana,4.4,POINT (8.301962399999999 47.050057),POINT (8.301962399999999 47.050057)
312,"Denkmalstrasse 2, 6000 Luzern, Switzerland",47.0575828,8.3108906,Caravelle,4.5,POINT (8.3108906 47.0575828),POINT (8.3108906 47.0575828)
313,"Hirschmattstrasse 29, 6003 Luzern, Switzerland",47.0470529,8.3080763,Basilico,4.5,POINT (8.3080763 47.0470529),POINT (8.3080763 47.0470529)
314,"Bahnhofstrasse 7, 6003 Luzern, Switzerland",47.0507385,8.307064599999999,Rossini,3.6,POINT (8.307064599999999 47.0507385),POINT (8.307064599999999 47.0507385)
315,"Hertensteinstrasse 23, 6004 Luzern, Switzerland",47.05423099999999,8.308551999999999,Einhorn,4.0,POINT (8.308551999999999 47.05423099999999),POINT (8.308551999999999 47.05423099999999)
316,"Tribschenstrasse 18, 6005 Luzern, Switzerland",47.0436722,8.312085699999999,Prizzi,4.3,POINT (8.312085699999999 47.0436722),POINT (8.312085699999999 47.0436722)
317,"Rathausquai 11, 6004 Luzern, Switzerland",47.0519565,8.3066937,Da Ernesto,3.7,POINT (8.3066937 47.0519565),POINT (8.3066937 47.0519565)
318,"Industriestrasse 7, 6005 Luzern, Switzerland",47.0416239,8.311201400000002,Grottino 1313,4.6,POINT (8.311201400000002 47.0416239),POINT (8.311201400000002 47.0416239)
319,"Burgerstrasse 22, 6003 Luzern, Switzerland",47.0494518,8.3024188,Punto Giusto,4.7,POINT (8.3024188 47.0494518),POINT (8.3024188 47.0494518)
320,"Metzgerrainle 9, 6004 Luzern, Switzerland",47.0516059,8.3043351,La Terrazza,3.1,POINT (8.304335099999999 47.0516059),POINT (8.304335099999999 47.0516059)
321,"Obergrundstrasse 26, 6003 Luzern, Switzerland",47.0469711,8.303788299999999,Made in Sud,4.7,POINT (8.303788299999999 47.0469711),POINT (8.303788299999999 47.0469711)
322,"Kauffmannweg 16, 6003 Luzern, Switzerland",47.0465467,8.3064198,Daniele,4.4,POINT (8.3064198 47.0465467),POINT (8.3064198 47.0465467)
323,"Hirschengraben 13, 6003 Luzern, Switzerland",47.049697200000004,8.3049245,Pastarazzi,4.8,POINT (8.3049245 47.0496972),POINT (8.3049245 47.0496972)
324,"26, Tribschenstrasse, 6005 Luzern, Switzerland",47.0433321,8.313195799999999,Tribschen restaurant kebab pizza,4.5,POINT (8.313195799999999 47.0433321),POINT (8.313195799999999 47.0433321)
325,"Baselstrasse 95, 6003 Luzern, Switzerland",47.054801700000006,8.2887384,Restaurant Pizzeria Meienrisli,4.2,POINT (8.2887384 47.05480170000001),POINT (8.2887384 47.05480170000001)
326,"Pilatusstrasse 5, 6002 Luzern, Switzerland",47.0499326,8.3080103,Brasserie Flora,3.9,POINT (8.308010299999999 47.0499326),POINT (8.308010299999999 47.0499326)
327,"Rössligasse 2, 6004 Luzern, Switzerland",47.0523791,8.3049301,La Fenice,4.0,POINT (8.3049301 47.0523791),POINT (8.3049301 47.0523791)
328,"Töpferstrasse 5, 6004 Luzern, Switzerland",47.055035700000005,8.3103284,Restaurant Portofino Luzern,4.4,POINT (8.3103284 47.0550357),POINT (8.3103284 47.0550357)
329,"St. Karlistrasse 13A, 6004 Luzern, Switzerland",47.0543531,8.2982476,Geissmatt,4.9,POINT (8.2982476 47.0543531),POINT (8.2982476 47.0543531)
330,"Haldenstrasse 4, 6006 Luzern, Switzerland",47.0546596,8.314146899999999,Padrino,4.0,POINT (8.314146899999999 47.0546596),POINT (8.314146899999999 47.0546596)
331,"Baselstrasse 76, 6003 Luzern, Switzerland",47.0538934,8.292343599999999,Gimi s Pizza & Panini GmbH,4.4,POINT (8.292343599999999 47.0538934),POINT (8.292343599999999 47.0538934)
332,"Industriestrasse 15, 6010 Kriens, Switzerland",47.023534000000005,8.299579,La Fontana,4.4,POINT (8.299579 47.02353400000001),POINT (8.299579 47.02353400000001)
333,"Spitalstrasse 21, 6004 Luzern, Switzerland",47.0586268,8.3005406,Restaurant Trattoria della nonna,4.6,POINT (8.3005406 47.0586268),POINT (8.3005406 47.0586268)
334,"Kantonsstrasse 74, 6048 Horw, Switzerland",47.020670700000004,8.3106112,Ristorante la Grotta,4.5,POINT (8.3106112 47.0206707),POINT (8.3106112 47.0206707)
335,"Schappeweg 3, 6010 Kriens, Switzerland",47.03465300000001,8.274058499999999,Ristorante uno e più Schappe-Center,4.2,POINT (8.274058499999999 47.03465300000001),POINT (8.274058499999999 47.03465300000001)
336,"Pilatusstrasse 29, 6003 Luzern, Switzerland",47.048146200000005,8.305425999999999,Hotel Astoria Luzern,4.1,POINT (8.305425999999999 47.04814620000001),POINT (8.305425999999999 47.04814620000001)
337,"Metzgerrainle 3, 6004 Luzern, Switzerland",47.0516954,8.3046103,Luzern.pizzaria Valentino,4.2,POINT (8.3046103 47.0516954),POINT (8.3046103 47.0516954)
338,"Oberdierikonerstrasse 3, 6030 Ebikon, Switzerland",47.08436409999999,8.348233500000001,Ristorante Pizzeria Da Vinci,4.3,POINT (8.348233500000001 47.08436409999999),POINT (8.348233500000001 47.08436409999999)
339,"Horwerstrasse 93, 6005 Luzern, Switzerland",47.0328291,8.3036715,Wirtschaft zum Schützenhaus,3.6,POINT (8.3036715 47.0328291),POINT (8.3036715 47.0328291)
340,"Gemeindehauspl. 8, 6048 Horw, Switzerland",47.01871000000001,8.3093439,Ristorante Pizzeria Enzian,4.4,POINT (8.3093439 47.01871000000001),POINT (8.3093439 47.01871000000001)
341,"Kantonsstrasse 130, 6048 Horw, Switzerland",47.01470459999999,8.310830900000001,Restaurant & Pizzeria La Fontana,4.5,POINT (8.310830900000001 47.01470459999999),POINT (8.310830900000001 47.01470459999999)
342,"Baselstrasse 70, 6003 Luzern, Switzerland",47.053567799999996,8.293025499999999,Best Pizza Kurier seit 2000,4.4,POINT (8.293025499999999 47.0535678),POINT (8.293025499999999 47.0535678)
343,"Burgerstrasse 22, 6003 Luzern, Switzerland",47.04949209999999,8.3024699,Punto Giusto,3.6,POINT (8.3024699 47.04949209999999),POINT (8.3024699 47.04949209999999)
344,"45/47, Hirschengraben, 6003 Luzern, Switzerland",47.0505343,8.3012518,Jam Jam Restaurant,4.4,POINT (8.301251799999999 47.0505343),POINT (8.301251799999999 47.0505343)
345,"Murbacherstrasse 4, 6003 Luzern, Switzerland",47.0486078,8.3087804,Bellini,4.2,POINT (8.3087804 47.0486078),POINT (8.3087804 47.0486078)
346,"Theaterstrasse 7, 6003 Luzern, Switzerland",47.050051,8.3068856,Pizzeria La Baracca,4.5,POINT (8.306885599999999 47.050051),POINT (8.306885599999999 47.050051)
347,"Unterer Graben 20, 9000 St. Gallen, Switzerland",47.4274409,9.3748932,Restaurant Baratella,4.5,POINT (9.374893200000001 47.4274409),POINT (9.374893200000001 47.4274409)
348,"Davidstrasse 38, 9000 St. Gallen, Switzerland",47.420113,9.3684157,Ristorante Acquarello,4.4,POINT (9.3684157 47.420113),POINT (9.3684157 47.420113)
349,"Kugelgasse 7, 9000 St. Gallen, Switzerland",47.42525699999999,9.3775808,San Lorenzo,4.2,POINT (9.3775808 47.42525699999999),POINT (9.3775808 47.42525699999999)
350,"Lämmlisbrunnenstrasse 41, 9000 St. Gallen, Switzerland",47.4254019,9.3816766,Restaurant Toscana,4.4,POINT (9.3816766 47.4254019),POINT (9.3816766 47.4254019)
351,"Gartenstrasse 5, 9000 St. Gallen, Switzerland",47.42175229999999,9.373987300000001,Mamma Assunta,4.4,POINT (9.373987300000001 47.42175229999999),POINT (9.373987300000001 47.42175229999999)
352,"Metzgergasse 22, 9000 St. Gallen, Switzerland",47.427095200000004,9.3753294,focacceria st. gallen,4.5,POINT (9.3753294 47.4270952),POINT (9.3753294 47.4270952)
353,"Schmiedgasse 1, 9000 St. Gallen, Switzerland",47.4243342,9.376570800000001,LA FOLLIA,4.2,POINT (9.376570800000001 47.4243342),POINT (9.376570800000001 47.4243342)
354,"Geltenwilenstrasse 15, 9000 St. Gallen, Switzerland",47.4189528,9.366541900000001,Forchetta D'Oro,4.7,POINT (9.366541900000001 47.4189528),POINT (9.366541900000001 47.4189528)
355,"Rorschacher Str. 154, 9006 St. Gallen, Switzerland",47.431151299999996,9.3960321,la bocca,4.3,POINT (9.396032099999999 47.4311513),POINT (9.396032099999999 47.4311513)
356,"Gallusstrasse 39, 9000 St. Gallen, Switzerland",47.4219842,9.3757191,Ristorante Facincani,4.7,POINT (9.3757191 47.4219842),POINT (9.3757191 47.4219842)
357,"Webergasse 9, 9000 St. Gallen, Switzerland",47.423201399999996,9.375021,la bocca city,4.4,POINT (9.375021 47.4232014),POINT (9.375021 47.4232014)
358,"Lindenstrasse 21, 9000 St. Gallen, Switzerland",47.4318124,9.3876844,Zia Rosa GmbH,4.2,POINT (9.387684399999999 47.4318124),POINT (9.387684399999999 47.4318124)
359,"Abacus-Platz 1, 9301 Wittenbach, Switzerland",47.450437,9.396293,Restaurant Al Covo,4.2,POINT (9.396293 47.450437),POINT (9.396293 47.450437)
360,"St. Leonhard-Strasse 71, 9000 St. Gallen, Switzerland",47.42074299999999,9.364923,Pizzeria Bellissimo St. Gallen,5.0,POINT (9.364922999999999 47.42074299999999),POINT (9.364922999999999 47.42074299999999)
361,"Zürcherstrasse 118, 9000 St. Gallen, Switzerland",47.41617960000001,9.3446346,Restaurant Barbarossa Pizza Kurier,3.2,POINT (9.344634599999999 47.41617960000001),POINT (9.344634599999999 47.41617960000001)
362,"Langgasse 5, 9008 St. Gallen, Switzerland",47.4342584,9.3843125,Restaurant Cavallino,4.5,POINT (9.3843125 47.4342584),POINT (9.3843125 47.4342584)
363,"Poststrasse 27, 9000 St. Gallen, Switzerland",47.42403729999999,9.371400900000001,Bar Walhalla St. Gallen,3.7,POINT (9.371400900000001 47.42403729999999),POINT (9.371400900000001 47.42403729999999)
364,"St. Leonhard-Strasse 12, 9000 St. Gallen, Switzerland",47.4237008,9.3728681,Ristorante-Pizzeria La Taverna,4.3,POINT (9.3728681 47.4237008),POINT (9.3728681 47.4237008)
365,"Bruggwaldstrasse 1A, 9008 St. Gallen, Switzerland",47.4424106,9.393649900000002,Pizzeria Trattoria Elba Heiligkreuz GmbH,4.4,POINT (9.393649900000002 47.4424106),POINT (9.393649900000002 47.4424106)
366,"Oberstrasse 30, 9000 St. Gallen, Switzerland",47.4181448,9.3663142,Pizzeria Da Angelo,3.8,POINT (9.3663142 47.4181448),POINT (9.3663142 47.4181448)
367,"Engelgasse 12, 9000 St. Gallen, Switzerland",47.42656969999999,9.3747874,LaVigna,4.6,POINT (9.374787400000001 47.42656969999999),POINT (9.374787400000001 47.42656969999999)
368,"Zürcherstrasse 462, 9015 St. Gallen, Switzerland",47.407835600000006,9.304373599999998,Piazza d'Arena,4.1,POINT (9.304373599999998 47.40783560000001),POINT (9.304373599999998 47.40783560000001)
369,"Langgasse 30, 9008 St. Gallen, Switzerland",47.4358131,9.3870155,Da Gerardo pizzeria restaurante,4.7,POINT (9.3870155 47.4358131),POINT (9.3870155 47.4358131)
370,"Teufener Str. 94, 9000 St. Gallen, Switzerland",47.415279,9.364716,"Ristorante - Pizzeria ""Superpizza""",4.1,POINT (9.364716 47.415279),POINT (9.364716 47.415279)
371,"Bahnhofstrasse 9, 9000 St. Gallen, Switzerland",47.4254196,9.372795,Restaurant Kolosseum,4.6,POINT (9.372795 47.4254196),POINT (9.372795 47.4254196)
372,"St. Gallerstrasse 215, 9200 Gossau, Switzerland",47.4154306,9.2682891,Pizzeria La Pergola,4.5,POINT (9.268289100000001 47.4154306),POINT (9.268289100000001 47.4154306)
373,"Torstrasse 22, 9000 St. Gallen, Switzerland",47.42824299999999,9.377617,dieci Pizzakurier & Restaurant St.Gallen,4.2,POINT (9.377617000000001 47.42824299999999),POINT (9.377617000000001 47.42824299999999)
374,"Rorschacher Str. 200, 9000 St. Gallen, Switzerland",47.43385,9.400574,Pizzakurier St. Gallen & Pizza bestellen & Pizzeria Milano & Lieferservice St. Gallen,4.7,POINT (9.400574000000001 47.43385),POINT (9.400574000000001 47.43385)
375,"Rorschacher Str. 150, 9000 St. Gallen, Switzerland",47.4309602,9.3951442,Terronia Gusto & Musica,4.4,POINT (9.395144200000001 47.4309602),POINT (9.395144200000001 47.4309602)
376,"St. Jakob-Strasse 71, 9000 St. Gallen, Switzerland",47.43186619999999,9.3816976,Vin Pizza Kebab,4.2,POINT (9.381697600000001 47.43186619999999),POINT (9.381697600000001 47.43186619999999)
377,"St. Gallerstrasse 43, 9300 Wittenbach, Switzerland",47.4547266,9.3994085,Pizzeria Testarossa,4.2,POINT (9.3994085 47.4547266),POINT (9.3994085 47.4547266)
378,"Bohl 2, 9000 St. Gallen, Switzerland",47.426145399999996,9.3763261,Restaurant 90 Grad,3.9,POINT (9.3763261 47.4261454),POINT (9.3763261 47.4261454)
379,"Davidstrasse 42, 9000 St. Gallen, Switzerland",47.41992399999999,9.367638000000001,Lagerhaus,4.5,POINT (9.367638000000001 47.41992399999999),POINT (9.367638000000001 47.41992399999999)
380,"Via Stauffacher 1, 6900 Lugano, Switzerland",46.0041429,8.955122300000001,Elementi,4.3,POINT (8.955122300000001 46.0041429),POINT (8.955122300000001 46.0041429)
381,"Piazza Alighieri Dante, 6901 Lugano, Switzerland",46.004829799999996,8.9509204,Ristorante Commercianti,4.1,POINT (8.950920399999999 46.0048298),POINT (8.950920399999999 46.0048298)
382,"Via Cantonale, 6912 Lugano, Switzerland",45.982991999999996,8.956389,Capo San Martino Restaurant,4.3,POINT (8.956389 45.982992),POINT (8.956389 45.982992)
383,"Via Alla Bozzoreda 4, 6963 Lugano, Switzerland",46.019765299999996,8.973677799999997,Ristorante Pizzeria del Sole,4.3,POINT (8.973677799999997 46.0197653),POINT (8.973677799999997 46.0197653)
384,"Via Cattedrale 16, 6900 Lugano, Switzerland",46.0052836,8.948688899999997,Pasta e Pesto,4.4,POINT (8.948688899999997 46.0052836),POINT (8.948688899999997 46.0052836)
385,"Via Massimiliano Magatti 3, 6900 Lugano, Switzerland",46.004264899999995,8.952031800000002,Bottegone,4.4,POINT (8.952031800000002 46.0042649),POINT (8.952031800000002 46.0042649)
386,"Via Giosuè Carducci 4, 6900 Lugano, Switzerland",46.004765,8.953227,Ristorante Trattoria Galleria,4.4,POINT (8.953227 46.004765),POINT (8.953227 46.004765)
387,"Via Luigi Canonica 5, 6900 Lugano, Switzerland",46.0068638,8.9567414,Deseo,4.4,POINT (8.9567414 46.0068638),POINT (8.9567414 46.0068638)
388,"Via del Tiglio 13/A, 6900 Lugano, Switzerland",46.0076192,8.9625627,Ristorante Pizzeria da Franco,4.4,POINT (8.962562699999999 46.0076192),POINT (8.962562699999999 46.0076192)
389,"Via Serafino Balestra 20, 6900 Lugano, Switzerland",46.0076887,8.958149599999997,Fingy's,4.7,POINT (8.958149599999997 46.0076887),POINT (8.958149599999997 46.0076887)
390,"Via Giovanni Nizzola 2, 6900 Lugano, Switzerland",46.005803799999995,8.9531111,Orologio,4.5,POINT (8.953111099999999 46.0058038),POINT (8.953111099999999 46.0058038)
391,"Piazza Riziero Rezzonico 2, 6900 Lugano, Switzerland",46.0033352,8.9509173,Mary,3.5,POINT (8.9509173 46.0033352),POINT (8.9509173 46.0033352)
392,"Via Cantonale 1, 6900 Lugano, Switzerland",46.00668599999999,8.9499084,La Trattoria a Lugano,4.6,POINT (8.9499084 46.00668599999999),POINT (8.9499084 46.00668599999999)
393,"Via Clemente Maraini, 6900 Lugano, Switzerland",46.004475899999996,8.947633900000001,AnaCapri Ristorante SA,3.8,POINT (8.947633900000001 46.0044759),POINT (8.947633900000001 46.0044759)
394,"Lugano CH, Scalinata alla Torretta 30, 6979 Brè sopra, Switzerland",46.009069200000006,8.986487599999998,Osteria Funiculare,4.3,POINT (8.986487599999998 46.00906920000001),POINT (8.986487599999998 46.00906920000001)
395,"pian scairolo 4, 6915 Lugano, Switzerland",45.985902100000004,8.9342224,Ristorante Serrafiorita,4.1,POINT (8.934222399999999 45.9859021),POINT (8.934222399999999 45.9859021)
396,"Piazza Riforma 9, 6900 Lugano, Switzerland",46.00400820000001,8.951030699999999,Sass,3.9,POINT (8.951030699999999 46.00400820000001),POINT (8.951030699999999 46.00400820000001)
397,"Via Ponte Tresa 28, 6924 Sorengo, Switzerland",45.9967809,8.935006900000001,Ristorante Giardino,4.0,POINT (8.935006900000001 45.9967809),POINT (8.935006900000001 45.9967809)
398,"Via Stremadone 1, 6987 Caslano, Switzerland",45.969355,8.883158,Pizzeria Quadrifoglio,4.5,POINT (8.883158 45.969355),POINT (8.883158 45.969355)
399,"Riva Giocondo Albertolli 5, 6900 Lugano, Switzerland",46.003812200000006,8.954818699999997,GianGusto,4.3,POINT (8.954818699999997 46.00381220000001),POINT (8.954818699999997 46.00381220000001)
400,"Piazza S. Giovanni 8, 6925 Collina d'Oro, Switzerland",45.99170170000001,8.9189607,Ristorante A CASA MIA,4.3,POINT (8.9189607 45.99170170000001),POINT (8.9189607 45.99170170000001)
401,"Via Principale 55, 6914 Lugano / Carona, Switzerland",45.95636,8.9344,Ristorante La Sosta,4.5,POINT (8.9344 45.95636),POINT (8.9344 45.95636)
402,"Piazza Indipendenza 9, 6901 Lugano, Switzerland",46.0057336,8.9551217,Restaurant Pestalozzi Lugano,3.8,POINT (8.955121699999999 46.0057336),POINT (8.955121699999999 46.0057336)
403,"Via Besso 86, 6900 Lugano, Switzerland",46.010853499999996,8.936914999999997,Ristorante-Pizzeria Golosone,4.0,POINT (8.936914999999997 46.0108535),POINT (8.936914999999997 46.0108535)
404,"Via Bertaro Lambertenghi 5, 6900 Lugano, Switzerland",46.0087593,8.9573429,Ristorante Fresco,4.3,POINT (8.9573429 46.0087593),POINT (8.9573429 46.0087593)
405,"Piázza dra Stazzión 6, 6967 Dino, Switzerland",46.052421,8.983194000000001,Ristorante Miramonti,4.4,POINT (8.983194000000001 46.052421),POINT (8.983194000000001 46.052421)
406,"Piazza Riziero Rezzonico 7, 6900 Lugano, Switzerland",46.002688899999995,8.9503665,Spaghetti Store SA,4.0,POINT (8.950366499999999 46.0026889),POINT (8.950366499999999 46.0026889)
407,"Str. dar Pian 60, 6945 Origlio, Switzerland",46.0487153,8.944500900000001,Le Betulle,4.3,POINT (8.944500900000001 46.0487153),POINT (8.944500900000001 46.0487153)
408,"Via Foce 9, 6900 Lugano, Switzerland",46.0033205,8.961738100000002,Antica Osteria del Porto,4.2,POINT (8.961738100000002 46.0033205),POINT (8.961738100000002 46.0033205)
409,"Via Brusimpiano, 8B, 21037 Lavena Ponte Tresa VA, Italy",45.953608100000004,8.8762897,La Sella d''Oro,4.0,POINT (8.876289699999999 45.9536081),POINT (8.876289699999999 45.9536081)
410,"Via Riviera 1, 6900 Lugano, Switzerland",46.0051954,8.970557300000001,Neapolis - le Taverne di Lucullo,4.2,POINT (8.970557300000001 46.0051954),POINT (8.970557300000001 46.0051954)
411,"Piazza Emilio Bossi 7, 6900 Lugano, Switzerland",46.00510509999999,8.9703538,Ristorante Arté,4.7,POINT (8.9703538 46.00510509999999),POINT (8.9703538 46.00510509999999)
412,"Salita M. e A. Chiattone 10, 6900 Lugano, Switzerland",46.00534520000001,8.9501847,Manora,4.1,POINT (8.950184699999999 46.00534520000001),POINT (8.950184699999999 46.00534520000001)
413,"Via Cantonale, 6978 Lugano, Switzerland",46.005925,9.002217,Ristorante le bucce di Gandria,4.7,POINT (9.002217 46.005925),POINT (9.002217 46.005925)
414,"Via Pietro Capelli 2, 6962 Viganello, Switzerland",46.010056,8.9598871,Anema & Core,4.2,POINT (8.9598871 46.010056),POINT (8.9598871 46.010056)
415,"Via Cattedrale 12, 6900 Lugano, Switzerland",46.0051727,8.949202099999997,Osteria Trani,4.3,POINT (8.949202099999997 46.0051727),POINT (8.949202099999997 46.0051727)
416,"Via dei Gorini 2, 6900 Lugano, Switzerland",46.00413469999999,8.950744699999998,La Tinera,4.5,POINT (8.950744699999998 46.00413469999999),POINT (8.950744699999998 46.00413469999999)
417,"Crocicchio Cortogna 1, 6900 Lugano, Switzerland",46.0040863,8.951456799999997,Bistrot & Pizza Argentino,4.3,POINT (8.951456799999997 46.0040863),POINT (8.951456799999997 46.0040863)
418,"Piazza Francesco Borromini, 6816 Bissone, Switzerland",45.9510991,8.9643561,Albergo Ristorante La Palma,4.0,POINT (8.9643561 45.9510991),POINT (8.9643561 45.9510991)
419,"Riva Vincenzo Vela 4, 6900 Lugano, Switzerland",46.002130799999996,8.9500777,La Cucina di Alice,4.2,POINT (8.9500777 46.0021308),POINT (8.9500777 46.0021308)
420,"Via Antonio Fusoni 18, 6900 Lugano, Switzerland",46.00906699999999,8.959439999999997,I Calafatari,4.5,POINT (8.959439999999997 46.00906699999999),POINT (8.959439999999997 46.00906699999999)
421,"Via Pessina 3, 6900 Lugano, Switzerland",46.003887,8.950201,Grand Café Al Porto,4.5,POINT (8.950201 46.003887),POINT (8.950201 46.003887)
422,"Piazza Nisciör, 6978 Lugano, Switzerland",46.005238,9.002516,Locanda Gandriese,4.4,POINT (9.002516 46.005238),POINT (9.002516 46.005238)
423,"Piazza Riforma 10, 6900 Lugano, Switzerland",46.0039712,8.9514857,Tango Riforma SA,3.9,POINT (8.951485699999999 46.0039712),POINT (8.951485699999999 46.0039712)
424,"Piazza Lucchini 5, 6978 Lugano, Switzerland",46.005604999999996,9.003596,Ristorante Antico,4.1,POINT (9.003596 46.005605),POINT (9.003596 46.005605)
425,"Località Cini, 21, 22018 Cima CO, Italy",46.0274951,9.0976906,Ristorante La Masseria Beach Terrace & Grill,4.9,POINT (9.0976906 46.0274951),POINT (9.0976906 46.0274951)
426,"Bahnhofstrasse 14, 2502 Biel, Switzerland",47.13448220000001,7.2444429999999995,L'Osteria Biel-Bienne,4.1,POINT (7.244443 47.13448220000001),POINT (7.244443 47.13448220000001)
427,"Spitalstrasse 24/26, 2502 Biel, Switzerland",47.135788700000006,7.2428619,Ristorante Italia,4.1,POINT (7.2428619 47.13578870000001),POINT (7.2428619 47.13578870000001)
428,"Rathausgässli 6, 2502 Biel, Switzerland",47.1411144,7.2458776,Osteria Da Willy,4.4,POINT (7.2458776 47.1411144),POINT (7.2458776 47.1411144)
429,"Solothurnstrasse 13, 2504 Biel, Switzerland",47.1542446,7.268384099999999,La Cantina Dei Sapori,4.4,POINT (7.268384099999999 47.1542446),POINT (7.268384099999999 47.1542446)
430,"Zentralstrasse 66A, 2503 Biel, Switzerland",47.134063299999994,7.249111900000001,Circolo Abruzzese,4.4,POINT (7.249111900000001 47.13406329999999),POINT (7.249111900000001 47.13406329999999)
431,"General-Dufour-Strasse 143, 2502 Biel, Switzerland",47.1443695,7.2572573,Restaurant Pizzeria Merkur - Holzofenpizzeria,4.3,POINT (7.2572573 47.1443695),POINT (7.2572573 47.1443695)
432,"Lyss-Strasse 19,2560 Nidau, 2560 Nidau, Switzerland",47.126088,7.2464168,Pizza Bakers,4.0,POINT (7.2464168 47.126088),POINT (7.2464168 47.126088)
433,"Zentralstrasse 31, 2502 Biel, Switzerland",47.1379838,7.245914399999998,Il Rusticone Ristorante Pizzeria,4.0,POINT (7.245914399999998 47.1379838),POINT (7.245914399999998 47.1379838)
434,"Bahnhofstrasse 32, 2502 Biel, Switzerland",47.13545999999999,7.245252000000002,Al Capone Pizzeria,4.3,POINT (7.245252000000002 47.13545999999999),POINT (7.245252000000002 47.13545999999999)
435,"Zentralstrasse 56, 2502 Biel, Switzerland",47.1354823,7.247775499999999,Da Carlos,3.9,POINT (7.247775499999999 47.1354823),POINT (7.247775499999999 47.1354823)
436,"Güterstrasse 9, 2501 Biel, Switzerland",47.134831,7.2455169999999995,Pizzeria Cabane,4.2,POINT (7.245517 47.134831),POINT (7.245517 47.134831)
437,"Bubenberg-Strasse 9, 2502 Biel, Switzerland",47.1434389,7.250858299999999,Restaurant Ischia Pizzeria,4.5,POINT (7.250858299999999 47.1434389),POINT (7.250858299999999 47.1434389)
438,"Grenchenstrasse 5, 2504 Biel, Switzerland",47.159428399999996,7.290158399999998,TENENTI,3.5,POINT (7.290158399999998 47.1594284),POINT (7.290158399999998 47.1594284)
439,"Zukunftstrasse 20, 2503 Biel, Switzerland",47.1333505,7.2477964,Restaurant Pizzeria Zukunft,3.9,POINT (7.2477964 47.1333505),POINT (7.2477964 47.1333505)
440,"Aarbergstrasse 90, 2502 Biel, Switzerland",47.133716299999996,7.2412323,Restaurant Campanello,4.0,POINT (7.2412323 47.1337163),POINT (7.2412323 47.1337163)
441,"Zentralstrasse 55, 2502 Biel, Switzerland",47.1363255,7.2474567,Restaurant Pizzeria Verona,4.2,POINT (7.2474567 47.1363255),POINT (7.2474567 47.1363255)
442,"Untere Hauptgasse 26, 3600 Thun, Switzerland",46.760783,7.628839,Trattoria Rimini,4.6,POINT (7.628839 46.760783),POINT (7.628839 46.760783)
443,"Bälliz 12, 3600 Thun, Switzerland",46.7597419,7.6261752000000005,Restaurant La Perla Pizzeria,4.1,POINT (7.6261752 46.7597419),POINT (7.6261752 46.7597419)
444,"Hofstettenstrasse 6, 3600 Thun, Switzerland",46.7570965,7.6332995000000015,Ristorante Beau Rivage da Domenico Zaccaria,4.6,POINT (7.633299500000001 46.7570965),POINT (7.633299500000001 46.7570965)
445,"Bälliz 61, 3600 Thun, Switzerland",46.757645700000005,7.629414899999999,Waisenhaus,4.1,POINT (7.629414899999999 46.7576457),POINT (7.629414899999999 46.7576457)
446,"C. F. L. Lohnerstrasse 55, 3645 Gwatt (Thun), Switzerland",46.72807539999999,7.6118916,Restaurant Cavallino,4.2,POINT (7.6118916 46.72807539999999),POINT (7.6118916 46.72807539999999)
447,"Freienhofgasse 16, 3600 Thun, Switzerland",46.7576685,7.6307580999999995,Ristorante Al Ponte,4.1,POINT (7.6307581 46.7576685),POINT (7.6307581 46.7576685)
448,"Freienhofgasse 13, 3600 Thun, Switzerland",46.756966,7.6306095,Ristorante Pizzeria Rialto,4.0,POINT (7.6306095 46.756966),POINT (7.6306095 46.756966)
449,"142, Staatsstrasse, 3626 Hilterfingen, Switzerland",46.74596079999999,7.6443292000000005,Chartreuse Osteria da Pasquale,4.6,POINT (7.6443292 46.74596079999999),POINT (7.6443292 46.74596079999999)
450,"Obere Hauptgasse 46, 3600 Thun, Switzerland",46.75844379999999,7.6300025,Restaurant Primavera,4.1,POINT (7.6300025 46.75844379999999),POINT (7.6300025 46.75844379999999)
451,"Länggasse 6, 3600 Thun, Switzerland",46.754874,7.626635,Delux Pizza,4.6,POINT (7.626635 46.754874),POINT (7.626635 46.754874)
452,"Mittlere Str. 28, 3600 Thun, Switzerland",46.7569372,7.6207272,Picco Bello Pizza,3.7,POINT (7.6207272 46.7569372),POINT (7.6207272 46.7569372)
453,"Aarequai 56, 3600 Thun, Switzerland",46.758177200000006,7.6303722999999986,Vinothek Thun Ristorante,4.3,POINT (7.630372299999999 46.75817720000001),POINT (7.630372299999999 46.75817720000001)
454,"Höchhusweg 17, 3612 Steffisburg, Switzerland",46.777597799999995,7.637303600000001,Ristorante Cinquecento,4.4,POINT (7.637303600000001 46.7775978),POINT (7.637303600000001 46.7775978)
455,"Freienhofgasse 12, 3600 Thun, Switzerland",46.75765,7.630428599999999,Sottoriva Osteria Venexiana,4.4,POINT (7.630428599999999 46.75765),POINT (7.630428599999999 46.75765)
456,"Schlossberg 2, 3600 Thun, Switzerland",46.759865999999995,7.629822,Schloss Hotel Thun,4.4,POINT (7.629822 46.759866),POINT (7.629822 46.759866)
457,"Am Aarequai 56, 3600 Thun, Switzerland",46.758179,7.630361999999999,Vinothek Thun,4.5,POINT (7.630361999999999 46.758179),POINT (7.630361999999999 46.758179)
458,"Gerberngasse 1, 3600 Thun, Switzerland",46.759661200000004,7.628272199999999,Hotel Restaurant Rathaus AG,3.9,POINT (7.628272199999999 46.7596612),POINT (7.628272199999999 46.7596612)
459,"Schwarzenburgstrasse 878, 3145 Niederscherli, Switzerland",46.8824537,7.380069700000001,Restaurant Sternen-Taufeld,4.3,POINT (7.380069700000001 46.8824537),POINT (7.380069700000001 46.8824537)
463,"Schaufelweg 19, 3098 Köniz, Switzerland",46.909934899999996,7.4154617,Zentrum-Eres,5.0,POINT (7.4154617 46.9099349),POINT (7.4154617 46.9099349)
471,"Schwarzenburgstrasse 279, 3098 Köniz, Switzerland",46.922596500000004,7.4142929,Restaurant & Pizzeria Sternen,3.5,POINT (7.4142929 46.9225965),POINT (7.4142929 46.9225965)
485,"Seftigenstrasse 362, 3084 Wabern, Switzerland",46.923066999999996,7.4600453999999985,Inter Pizza Kurier,4.0,POINT (7.460045399999998 46.923067),POINT (7.460045399999998 46.923067)
487,"Chasseralstrasse 156, 3095 Spiegel b. Bern, Switzerland",46.9264125,7.433656200000001,Ristorante Pizzeria da Capo,4.0,POINT (7.433656200000001 46.9264125),POINT (7.433656200000001 46.9264125)
499,"Kirchstrasse 4, 3097 Liebefeld, Switzerland",46.9303573,7.4282593,Pizza fox,3.7,POINT (7.4282593 46.9303573),POINT (7.4282593 46.9303573)
500,"Muhlernstrasse 9, 3098 Köniz, Switzerland",46.920865,7.413898399999999,Restaurant zum Schloss,4.7,POINT (7.413898399999999 46.920865),POINT (7.413898399999999 46.920865)
505,"Schwarzenburgstrasse 279, 3098 Köniz, Switzerland",46.9226083,7.414294900000002,Hotel Sternen,4.0,POINT (7.414294900000002 46.9226083),POINT (7.414294900000002 46.9226083)
507,"Könizstrasse 175, 3097 Liebefeld/Bern, Switzerland",46.934869,7.415625999999999,Haberbüni,4.6,POINT (7.415625999999999 46.934869),POINT (7.415625999999999 46.934869)
508,"Könizstrasse 260, 3097 Liebefeld, Switzerland",46.9287753,7.416232199999999,Restaurant Rondell,4.3,POINT (7.416232199999999 46.9287753),POINT (7.416232199999999 46.9287753)
509,"Seftigenstrasse 32, 3007 Bern, Switzerland",46.937121999999995,7.431895599999999,Abyssinia Restaurant,4.5,POINT (7.431895599999999 46.937122),POINT (7.431895599999999 46.937122)
510,"Landorfstrasse 7, 3098 Köniz, Switzerland",46.92281679999999,7.4130965999999985,Mein-Küchenchef,4.7,POINT (7.413096599999998 46.92281679999999),POINT (7.413096599999998 46.92281679999999)
511,"Landorfstrasse 31, 3098 Köniz, Switzerland",46.921420899999994,7.412029999999999,Indian Kitchen,4.6,POINT (7.412029999999999 46.92142089999999),POINT (7.412029999999999 46.92142089999999)
512,"Landorfstrasse 29, 3098 Köniz, Switzerland",46.9217369,7.411922199999998,Restaurant Brunnenhof,3.8,POINT (7.411922199999998 46.9217369),POINT (7.411922199999998 46.9217369)
513,"Schwarzenburgstrasse 229, 3098 Köniz, Switzerland",46.925588700000006,7.4172936,Art Asia,4.3,POINT (7.4172936 46.92558870000001),POINT (7.4172936 46.92558870000001)
514,"Schwarzenburgstrasse 134, 3097 Liebefeld, Switzerland",46.9320605,7.421063599999999,Restaurant Landhaus Liebefeld,4.4,POINT (7.421063599999999 46.9320605),POINT (7.421063599999999 46.9320605)
515,"Schlossstrasse 34, 3098 Köniz, Switzerland",46.923543,7.417486,Restaurant Sinfonie,4.1,POINT (7.417486 46.923543),POINT (7.417486 46.923543)
516,"Könizstrasse 161, 3097 Köniz, Switzerland",46.935407899999994,7.416713300000001,Le Beizli,4.4,POINT (7.416713300000001 46.93540789999999),POINT (7.416713300000001 46.93540789999999)
518,"Rue du Parc 43, 2300 La Chaux-de-Fonds, Switzerland",47.1016464,6.825614999999999,L'Orphéo,4.1,POINT (6.825614999999999 47.1016464),POINT (6.825614999999999 47.1016464)
519,"Rue de la Serre 25, 2300 La Chaux-de-Fonds, Switzerland",47.102757800000006,6.828237,"Italpanini, Emilio Munastra",4.4,POINT (6.828237 47.10275780000001),POINT (6.828237 47.10275780000001)
520,"Avenue Léopold-Robert 13, 2300 La Chaux-de-Fonds, Switzerland",47.102594599999996,6.830321199999998,Trattoria Toscana Sàrl,3.9,POINT (6.830321199999998 47.1025946),POINT (6.830321199999998 47.1025946)
521,"Espacité, 1, 2300 La Chaux-de-Fonds, Switzerland",47.1023609,6.828532000000001,Restaurant Citérama,4.2,POINT (6.828532000000001 47.1023609),POINT (6.828532000000001 47.1023609)
522,"39, Rue de l'Hôtel-de-Ville, 2300 La Chaux-de-Fonds, Switzerland",47.1002196,6.834978200000001,Dino's Italia,4.2,POINT (6.834978200000001 47.1002196),POINT (6.834978200000001 47.1002196)
523,"Rue de la Gare 4, 2400 Le Locle, Switzerland",47.058549,6.748204200000001,"Restaurant de la Gare ""Chez Sandro""",4.7,POINT (6.748204200000001 47.058549),POINT (6.748204200000001 47.058549)
524,"Rue de la Balance 8, 2300 La Chaux-de-Fonds, Switzerland",47.1041186,6.832107799999998,Restaurant & Bar Casa Rossa,4.2,POINT (6.832107799999998 47.1041186),POINT (6.832107799999998 47.1041186)
525,"Rue Alexis-Marie-Piaget 1, 2300 La Chaux-de-Fonds, Switzerland",47.10953730000001,6.8293979999999985,Restaurant Pizzeria Rapido,4.0,POINT (6.829397999999999 47.10953730000001),POINT (6.829397999999999 47.10953730000001)
526,"Rue du Marais 16, 2400 Le Locle, Switzerland",47.06066149999999,6.7536857,Restaurant la Piccola Italia 2 Sàrl,3.9,POINT (6.7536857 47.06066149999999),POINT (6.7536857 47.06066149999999)
527,"Schwabentorplatz 7, 79098 Freiburg im Breisgau, Germany",47.992956,7.853784299999999,La Cicogna,4.3,POINT (7.853784299999999 47.992956),POINT (7.853784299999999 47.992956)
528,"Friedrichring 11, 79098 Freiburg im Breisgau, Germany",47.9983766,7.8515450000000016,Gioia Mia,4.6,POINT (7.851545000000002 47.9983766),POINT (7.851545000000002 47.9983766)
529,"Robert-Koch-Straße 26, 79106 Freiburg im Breisgau, Germany",48.003617,7.838092999999999,I Trulli,4.3,POINT (7.838092999999999 48.003617),POINT (7.838092999999999 48.003617)
530,"Wentzingerstraße 32, 79106 Freiburg im Breisgau, Germany",47.997918,7.8401049999999985,Ochsebrugg,4.5,POINT (7.840104999999999 47.997918),POINT (7.840104999999999 47.997918)
531,"Bernhardstraße 6, 79098 Freiburg im Breisgau, Germany",47.9989363,7.854437700000001,Primo Market,4.4,POINT (7.854437700000001 47.9989363),POINT (7.854437700000001 47.9989363)
532,"Gerberau 9, 79098 Freiburg im Breisgau, Germany",47.9934765,7.850891499999999,"d.o.c. - dispensa, osteria, culinaria",4.6,POINT (7.850891499999999 47.9934765),POINT (7.850891499999999 47.9934765)
533,"Rotteckring 14, 79098 Freiburg im Breisgau, Germany",47.9966201,7.847111900000001,Tizio Trattoria,4.0,POINT (7.847111900000001 47.9966201),POINT (7.847111900000001 47.9966201)
534,"Schusterstraße 7, 79098 Freiburg im Breisgau, Germany",47.994981700000004,7.8516425000000005,Milano,3.9,POINT (7.851642500000001 47.9949817),POINT (7.851642500000001 47.9949817)
535,"Quartier am, Fahnenbergpl., 79098 Freiburg im Breisgau, Germany",47.998319,7.8490797999999975,Vapiano,4.1,POINT (7.849079799999997 47.998319),POINT (7.849079799999997 47.998319)
536,"Rheinstraße 15, 79104 Freiburg im Breisgau, Germany",48.000121,7.848726400000001,Trattoria cum laude,4.3,POINT (7.848726400000001 48.000121),POINT (7.848726400000001 48.000121)
537,"Alban-Stolz-Straße 30, 79108 Freiburg im Breisgau, Germany",48.0245796,7.8593429000000015,Etna,4.6,POINT (7.859342900000001 48.0245796),POINT (7.859342900000001 48.0245796)
538,"Tennenbacher Str. 41, 79106 Freiburg im Breisgau, Germany",48.006514,7.846737999999998,Da Giorgio,4.4,POINT (7.846737999999998 48.006514),POINT (7.846737999999998 48.006514)
539,"Friedrichring 5, 79098 Freiburg im Breisgau, Germany",47.998342799999996,7.852173599999999,Firenze,3.9,POINT (7.852173599999999 47.9983428),POINT (7.852173599999999 47.9983428)
540,"Eisenbahnstraße 43, 79098 Freiburg im Breisgau, Germany",47.9972928,7.844550799999999,Casanova,3.8,POINT (7.844550799999999 47.9972928),POINT (7.844550799999999 47.9972928)
541,"Littenweilerstraße 20, 79117 Freiburg im Breisgau, Germany",47.9798214,7.892984200000001,La Corona,4.4,POINT (7.892984200000001 47.9798214),POINT (7.892984200000001 47.9798214)
542,"Bötzinger Str. 15, 79111 Freiburg im Breisgau, Germany",47.99255489999999,7.789052999999999,Dal Blu,4.2,POINT (7.789052999999999 47.99255489999999),POINT (7.789052999999999 47.99255489999999)
543,"Rieselfeldallee 19, 79111 Freiburg im Breisgau, Germany",47.9969806,7.795474799999999,Ciao Bella,4.1,POINT (7.795474799999999 47.9969806),POINT (7.795474799999999 47.9969806)
544,"Augustinerpl. 2, 79098 Freiburg im Breisgau, Germany",47.9936618,7.8515959,Tialini,3.6,POINT (7.8515959 47.9936618),POINT (7.8515959 47.9936618)
545,"Schneeburgstraße 2, 79111 Freiburg im Breisgau, Germany",47.978655100000005,7.810490700000001,Zur Schneeburg,4.3,POINT (7.810490700000001 47.9786551),POINT (7.810490700000001 47.9786551)
546,"Schwabentorplatz 6, 79098 Freiburg im Breisgau, Germany",47.9926344,7.853793400000002,Trattoria am Schwabentor,4.7,POINT (7.853793400000002 47.9926344),POINT (7.853793400000002 47.9926344)
547,"Gerberau 21, 79098 Freiburg im Breisgau, Germany",47.992960700000005,7.853448299999999,Enoteca,4.0,POINT (7.853448299999999 47.9929607),POINT (7.853448299999999 47.9929607)
548,"Rathausgasse 50, 79098 Freiburg im Breisgau, Germany",47.996334000000004,7.847550999999999,La Piazza,3.7,POINT (7.847550999999999 47.996334),POINT (7.847550999999999 47.996334)
549,"St.-Erentrudis-Straße 40, 79112 Freiburg im Breisgau, Germany",47.9698544,7.7013615999999985,Concini,4.3,POINT (7.701361599999998 47.9698544),POINT (7.701361599999998 47.9698544)
550,"Waldkircher Str. 59, 79106 Freiburg im Breisgau, Germany",48.013515000000005,7.853686,Amici,4.6,POINT (7.853686 48.01351500000001),POINT (7.853686 48.01351500000001)
551,"St.-Erentrudis-Straße 12, 79112 Freiburg im Breisgau, Germany",47.968365999999996,7.698258999999999,Limoncello,3.7,POINT (7.698258999999999 47.968366),POINT (7.698258999999999 47.968366)
552,"Rieselfeldallee 16, 79111 Freiburg im Breisgau, Germany",47.9981257,7.794132,Piazza Italia,4.4,POINT (7.794132 47.9981257),POINT (7.794132 47.9981257)
553,"Ziegelhofstraße 230, 79110 Freiburg im Breisgau, Germany",48.027249499999996,7.793381399999999,Ristorante-Pizzeria Ziegelhof,4.5,POINT (7.793381399999999 48.0272495),POINT (7.793381399999999 48.0272495)
554,"Breisacher Str. 149, 79110 Freiburg im Breisgau, Germany",48.0061566,7.827590899999999,Spacca Napoli,4.1,POINT (7.827590899999999 48.0061566),POINT (7.827590899999999 48.0061566)
555,"Am Bischofskreuz 13, 79114 Freiburg im Breisgau, Germany",48.00565539999999,7.818946700000001,Bellosguardo,4.6,POINT (7.818946700000001 48.00565539999999),POINT (7.818946700000001 48.00565539999999)
556,"Hansjakobstraße 110, 79117 Freiburg im Breisgau, Germany",47.9861306,7.8865299,San Marino,4.4,POINT (7.8865299 47.9861306),POINT (7.8865299 47.9861306)
557,"Kaiser-Joseph-Straße 282, 79098 Freiburg im Breisgau, Germany",47.990922999999995,7.8479235,Bella Italia,4.3,POINT (7.8479235 47.990923),POINT (7.8479235 47.990923)
558,"Sundgauallee 53, 79114 Freiburg im Breisgau, Germany",48.0105273,7.811171000000001,Die Krone,4.4,POINT (7.811171000000001 48.0105273),POINT (7.811171000000001 48.0105273)
559,"Sedanstraße 8, 79098 Freiburg im Breisgau, Germany",47.9947846,7.8436072,Bürgerstube,4.2,POINT (7.8436072 47.9947846),POINT (7.8436072 47.9947846)
560,"St. Georgener Str. 10, 79111 Freiburg im Breisgau, Germany",47.9859593,7.802151299999999,Pinocchio,3.9,POINT (7.802151299999999 47.9859593),POINT (7.802151299999999 47.9859593)
561,"Schwabentorring 4, 79098 Freiburg im Breisgau, Germany",47.992048,7.854195000000002,Taormina,4.2,POINT (7.854195000000002 47.992048),POINT (7.854195000000002 47.992048)
562,"Habsburgerstraße 121, 79104 Freiburg im Breisgau, Germany",47.999821600000004,7.853789699999999,Pulcinella,4.2,POINT (7.853789699999999 47.9998216),POINT (7.853789699999999 47.9998216)
563,"St.-Erentrudis-Straße 40, 79112 Freiburg im Breisgau, Germany",47.96987120000001,7.701378099999999,Zum Warteck - Restaurant Concini,4.6,POINT (7.701378099999999 47.96987120000001),POINT (7.701378099999999 47.96987120000001)
564,"Basler Landstraße 74A, 79111 Freiburg im Breisgau, Germany",47.98242,7.797619999999998,San Giorgio,4.5,POINT (7.797619999999998 47.98242),POINT (7.797619999999998 47.98242)
565,"Hexentalstraße 10, 79249 Merzhausen, Germany",47.970057000000004,7.827963199999999,Friedrichstal,4.6,POINT (7.827963199999999 47.970057),POINT (7.827963199999999 47.970057)
566,"Auwaldstraße 1A, 79110 Freiburg im Breisgau, Germany",48.02851099999999,7.804608999999999,Persio am See,4.1,POINT (7.804608999999999 48.02851099999999),POINT (7.804608999999999 48.02851099999999)
567,"Grünwälderstraße 26, 79098 Freiburg im Breisgau, Germany",47.993810499999995,7.8516174,Tialini,2.3,POINT (7.8516174 47.9938105),POINT (7.8516174 47.9938105)
568,"Scheuerleweg 21, 79227 Schallstadt, Germany",47.956826899999996,7.7569759000000005,Da Nico,4.5,POINT (7.7569759 47.9568269),POINT (7.7569759 47.9568269)
569,"Hummelstraße 20, 79100 Freiburg im Breisgau, Germany",47.98910310000001,7.842095199999998,Pizzeria Picasso,4.5,POINT (7.842095199999998 47.98910310000001),POINT (7.842095199999998 47.98910310000001)
570,"Weinbergstraße 2, 79299 Wittnau, Germany",47.940062,7.817741000000002,Engel,4.8,POINT (7.817741000000002 47.940062),POINT (7.817741000000002 47.940062)
571,"Bismarckallee 9, 79098 Freiburg im Breisgau, Germany",47.998583,7.8428556,Degusto,4.2,POINT (7.8428556 47.998583),POINT (7.8428556 47.998583)
572,"Unterstadt 19, 8200 Schaffhausen, Switzerland",47.695741,8.639292,Restaurant Rotgerbe,4.5,POINT (8.639291999999999 47.695741),POINT (8.639291999999999 47.695741)
573,"Schwertstrasse 1, 8200 Schaffhausen, Switzerland",47.697038,8.6333492,Santa Lucia Schaffhausen,4.1,POINT (8.6333492 47.697038),POINT (8.6333492 47.697038)
574,"Freier Pl. 6, 8200 Schaffhausen, Switzerland",47.6957823,8.6405052,Spaghetteria Little Italy,4.1,POINT (8.6405052 47.6957823),POINT (8.6405052 47.6957823)
575,"Grubenstrasse 92, 8200 Schaffhausen, Switzerland",47.7028153,8.6466341,Mondo Caffè,4.4,POINT (8.6466341 47.7028153),POINT (8.6466341 47.7028153)
576,"Bachstrasse 8, 8200 Schaffhausen, Switzerland",47.696064299999996,8.638459899999999,Gerberstube,4.4,POINT (8.638459899999999 47.6960643),POINT (8.638459899999999 47.6960643)
577,"Gründenstrasse 10, 8247 Flurlingen, Switzerland",47.6852372,8.6277587,Ristorante Pizzeria Made in Italy,4.7,POINT (8.627758699999999 47.6852372),POINT (8.627758699999999 47.6852372)
578,"Hohlenbaumstrasse 118, 8200 Schaffhausen, Switzerland",47.706143,8.621683299999999,Pizza Flizza,4.1,POINT (8.621683299999999 47.706143),POINT (8.621683299999999 47.706143)
579,"Unterstadt 18/20, 8200 Schaffhausen, Switzerland",47.69588579999999,8.639605099999999,Ristorante Pizzeria Romana,4.3,POINT (8.639605099999999 47.69588579999999),POINT (8.639605099999999 47.69588579999999)
580,"Vorstadt 58, 8200 Schaffhausen, Switzerland",47.699183500000004,8.635277499999999,Ristorante La Forchetta,4.3,POINT (8.635277499999999 47.6991835),POINT (8.635277499999999 47.6991835)
581,"Posthof 5, 8200 Schaffhausen, Switzerland",47.696933,8.632684,Musikhof Ljimani,4.7,POINT (8.632683999999999 47.696933),POINT (8.632683999999999 47.696933)
582,"Junkerstraße 92, 78266 Büsingen am Hochrhein, Germany",47.695889,8.6869696,Restaurant La Gondola,4.1,POINT (8.686969599999999 47.695889),POINT (8.686969599999999 47.695889)
583,"Münsterpl. 38, 8200 Schaffhausen, Switzerland",47.69562759999999,8.6354433,Ristorante La Piazza Haus zum Thiergarten,4.3,POINT (8.6354433 47.69562759999999),POINT (8.6354433 47.69562759999999)
584,"Bachstrasse 19, 8200 Schaffhausen, Switzerland",47.6963885,8.637763399999999,Pizzeria Mamma Rosa,4.2,POINT (8.637763399999999 47.6963885),POINT (8.637763399999999 47.6963885)
585,"Vorstadt 58, 8200 Schaffhausen, Switzerland",47.699183500000004,8.635277499999999,Ristorante la forchetta,4.1,POINT (8.635277499999999 47.6991835),POINT (8.635277499999999 47.6991835)
586,"Unterstadt 11, 8200 Schaffhausen, Switzerland",47.6957276,8.6397046,Pizzeria Casanova,4.3,POINT (8.6397046 47.6957276),POINT (8.6397046 47.6957276)
587,"Durachweg 24, 8200 Schaffhausen, Switzerland",47.699963000000004,8.6310605,Restaurant Mühlental,3.9,POINT (8.6310605 47.699963),POINT (8.6310605 47.699963)
588,"Mühlentalstrasse 255, 8200 Schaffhausen, Switzerland",47.71329189999999,8.6311207,Ristorante Mirabella,4.6,POINT (8.6311207 47.71329189999999),POINT (8.6311207 47.71329189999999)
589,"Obere G. 35, 7000 Chur, Switzerland",46.847922,9.530482000000001,Da Mamma,4.4,POINT (9.530482000000001 46.847922),POINT (9.530482000000001 46.847922)
590,"Kupfergasse 11, 7000 Chur, Switzerland",46.84833029999999,9.5303385,La Meridiana,4.2,POINT (9.530338499999999 46.84833029999999),POINT (9.530338499999999 46.84833029999999)
591,"Kornpl. 12, 7000 Chur, Switzerland",46.849145,9.530857000000001,Ristorante Pizzeria Capellerhof,4.2,POINT (9.530857000000001 46.849145),POINT (9.530857000000001 46.849145)
592,"Bahnhofstrasse 7, 7000 Chur, Switzerland",46.8529746,9.531019699999998,Café & Restaurant Passagino,4.1,POINT (9.531019699999998 46.8529746),POINT (9.531019699999998 46.8529746)
593,"Grabenstrasse 39, 7000 Chur, Switzerland",46.8491454,9.530194400000001,Pizzeria Mamma-Mia,4.2,POINT (9.530194400000001 46.8491454),POINT (9.530194400000001 46.8491454)
594,"Hartbertstrasse 10, 7000 Chur, Switzerland",46.8532225,9.5326165,La Pasteria Otello,4.4,POINT (9.5326165 46.8532225),POINT (9.5326165 46.8532225)
595,"Welschdörfli 1, 7000 Chur, Switzerland",46.8476463,9.528944500000001,dieci Pizza&Pasta Chur,4.1,POINT (9.528944500000001 46.8476463),POINT (9.528944500000001 46.8476463)
596,"Gürtelstrasse 27, 7000 Chur, Switzerland",46.853694,9.527032,Panizza,4.0,POINT (9.527032 46.853694),POINT (9.527032 46.853694)
597,"Steinbruchstrasse 2, 7000 Chur, Switzerland",46.8513893,9.5342896,La Vita Chur GmbH,4.4,POINT (9.534289599999999 46.8513893),POINT (9.534289599999999 46.8513893)
598,"Scalettastrasse 111, 7000 Chur, Switzerland",46.86134999999999,9.52004,Ristorante Pizzeria Neustadt,4.5,POINT (9.52004 46.86134999999999),POINT (9.52004 46.86134999999999)
599,"Vazerolgasse 12, 7000 Chur, Switzerland",46.8502,9.53287,Restaurant Obelisco,4.1,POINT (9.532870000000001 46.8502),POINT (9.532870000000001 46.8502)
600,"Deutsche Str. 35, 7000 Chur, Switzerland",46.875820000000004,9.535753,Ristorante Pizzeria Oldtimer,4.5,POINT (9.535753 46.87582),POINT (9.535753 46.87582)
601,"Ringstrasse 203, 7000 Chur, Switzerland",46.860428999999996,9.533699,Pizza da Toni Lieferservice mit Restaurant,3.7,POINT (9.533699 46.860429),POINT (9.533699 46.860429)
602,"Ringstrasse 37, 7000 Chur, Switzerland",46.85486160000001,9.5153635,dieci Pizzakurier Chur,4.1,POINT (9.515363499999999 46.85486160000001),POINT (9.515363499999999 46.85486160000001)
603,"Ringstrasse 106, 7000 Chur, Switzerland",46.85787999999999,9.5225,Pizzakurier-Mediterran Restaurant Scaletta,3.7,POINT (9.522500000000001 46.85787999999999),POINT (9.522500000000001 46.85787999999999)
604,"Tödistrasse 1, 7000 Chur, Switzerland",46.854512899999996,9.524389700000002,Sunshine Pub,4.2,POINT (9.524389700000002 46.8545129),POINT (9.524389700000002 46.8545129)
605,"Gürtelstrasse 33, 7000 Chur, Switzerland",46.854153000000004,9.527853,Pizzakurier La Mamma,4.1,POINT (9.527853 46.854153),POINT (9.527853 46.854153)
606,"Rabengasse 6, 7000 Chur, Switzerland",46.84853200000001,9.533064,Punctum Apero Bar,4.5,POINT (9.533064 46.84853200000001),POINT (9.533064 46.84853200000001)
607,"Raschärenstrasse 38, 7000 Chur, Switzerland",46.8493416,9.508962,Rheinfels,4.4,POINT (9.508962 46.8493416),POINT (9.508962 46.8493416)
608,"2 Rue Vernier, 06000 Nice, France",43.707541,7.262883500000001,Le Bistrot Vernier Bar Restaurant,0.0,POINT (7.262883500000001 43.707541),POINT (7.262883500000001 43.707541)
609,"Route de Vernier 215, 1214 Vernier, Switzerland",46.21641210000001,6.08665,Restaurant Bellevue,3.4,POINT (6.08665 46.21641210000001),POINT (6.08665 46.21641210000001)
611,"Rathauspl. 1, 79395 Neuenburg am Rhein, Germany",47.814003899999996,7.5609365,Osteria Restaurant Eiscafe Incontro,4.3,POINT (7.5609365 47.8140039),POINT (7.5609365 47.8140039)
612,"Müllheimer Str. 35, 79395 Neuenburg am Rhein, Germany",47.812075,7.569076000000001,Villa Plön,4.3,POINT (7.569076000000001 47.812075),POINT (7.569076000000001 47.812075)
613,"Marktpl. 2, 79395 Neuenburg am Rhein, Germany",47.816,7.5633300000000006,Stadthaus Restaurant,4.1,POINT (7.563330000000001 47.816),POINT (7.563330000000001 47.816)
614,"Mülhauser Str. 1, 79395 Neuenburg am Rhein, Germany",47.8159417,7.5530301999999985,Zum kleinen Hecht,4.5,POINT (7.553030199999998 47.8159417),POINT (7.553030199999998 47.8159417)
615,"1 Avenue de la Gare, 68490 Chalampé, France",47.81639939999999,7.5393087,Al Casertano,4.1,POINT (7.5393087 47.81639939999999),POINT (7.5393087 47.81639939999999)
616,"Daimlerstraße 26, 75305 Neuenbürg, Germany",48.8537942,8.580267899999999,Ristorante Pizzeria Prima Fila,4.2,POINT (8.580267899999999 48.8537942),POINT (8.580267899999999 48.8537942)
617,"Winterthurerstrasse 13, 8610 Uster, Switzerland",47.35158699999999,8.713272,Tomate,4.0,POINT (8.713272 47.35158699999999),POINT (8.713272 47.35158699999999)
